{
"type": "FeatureCollection",
"crs": { "type": "name", "properties": { "name": "urn:ogc:def:crs:OGC:1.3:CRS84" } },
"features": [
{ "type": "Feature", "properties": { "id": 1000041015, "town": "Imatra", "name": "Paasinsalmen laivojen hautausmaa", "created_at": "2021-05-05", "type": "alusten hylyt,  ,  ,", "location_accuracy": null, "url": "www.kyppi.fi/to.aspx?id=112.1000041015", "is_ancient": "False", "source": "museovirasto" }, "geometry": { "type": "Point", "coordinates": [ 28.782011218822159, 61.226582462052924 ] } },
{ "type": "Feature", "properties": { "id": 1000040981, "town": "Hanko", "name": "Tvärminne Storfjärden 2", "created_at": "2021-04-26", "type": "alusten hylyt,  ,  ,", "location_accuracy": null, "url": "www.kyppi.fi/to.aspx?id=112.1000040981", "is_ancient": "1", "source": "museovirasto" }, "geometry": { "type": "Point", "coordinates": [ 23.2270389880129, 59.876831861563964 ] } },
{ "type": "Feature", "properties": { "id": 1000040960, "town": "Pori", "name": "Halssi", "created_at": "2021-04-21", "type": "alusten hylyt,  ,  ,", "location_accuracy": null, "url": "www.kyppi.fi/to.aspx?id=112.1000040960", "is_ancient": "False", "source": "museovirasto" }, "geometry": { "type": "Point", "coordinates": [ 21.626371379849886, 61.565839145889989 ] } },
{ "type": "Feature", "properties": { "id": 1000037386, "town": "Sipoo", "name": "Sipoo avomeri", "created_at": "2019-12-19", "type": "alusten hylyt,  ,  ,", "location_accuracy": null, "url": "www.kyppi.fi/to.aspx?id=112.1000037386", "is_ancient": "False", "source": "museovirasto" }, "geometry": { "type": "Point", "coordinates": [ 25.189034836255651, 60.036413375536952 ] } },
{ "type": "Feature", "properties": { "id": 1000038689, "town": "Äänekoski", "name": "Honkaniemi", "created_at": "2020-06-04", "type": "alusten hylyt,  ,  ,", "location_accuracy": null, "url": "www.kyppi.fi/to.aspx?id=112.1000038689", "is_ancient": "False", "source": "museovirasto" }, "geometry": { "type": "Point", "coordinates": [ 25.791753924246052, 62.651748383085838 ] } },
{ "type": "Feature", "properties": { "id": 1000037406, "town": "Parainen", "name": "Kuggvik 1", "created_at": "2019-12-20", "type": "kulkuväylät,  ,  ,", "location_accuracy": null, "url": "www.kyppi.fi/to.aspx?id=112.1000037406", "is_ancient": "False", "source": "museovirasto" }, "geometry": { "type": "Point", "coordinates": [ 21.53906723522476, 60.161752236114538 ] } },
{ "type": "Feature", "properties": { "id": 1000037284, "town": "Hanko", "name": "Krogarviken", "created_at": "2019-12-11", "type": "alusten hylyt,  ,  ,", "location_accuracy": null, "url": "www.kyppi.fi/to.aspx?id=112.1000037284", "is_ancient": "False", "source": "museovirasto" }, "geometry": { "type": "Point", "coordinates": [ 23.246896662333484, 59.845848297273633 ] } },
{ "type": "Feature", "properties": { "id": 1000041007, "town": "Kuopio", "name": "Pitkälahti Etelä", "created_at": "2021-05-03", "type": "alusten hylyt,  ,  ,", "location_accuracy": null, "url": "www.kyppi.fi/to.aspx?id=112.1000041007", "is_ancient": "False", "source": "museovirasto" }, "geometry": { "type": "Point", "coordinates": [ 27.615332783114955, 62.82805847554426 ] } },
{ "type": "Feature", "properties": { "id": 1000037397, "town": "Savitaipale", "name": "Kammarlahti 3", "created_at": "2021-06-14", "type": "asuinpaikat,  ,  ,", "location_accuracy": null, "url": "www.kyppi.fi/to.aspx?id=112.1000037397", "is_ancient": "False", "source": "museovirasto" }, "geometry": { "type": "Point", "coordinates": [ 27.590891231194565, 61.218287111083193 ] } },
{ "type": "Feature", "properties": { "id": 1000037105, "town": "Joensuu", "name": "Hietajärvi", "created_at": "2019-11-18", "type": "löytöpaikat,  ,  ,", "location_accuracy": null, "url": "www.kyppi.fi/to.aspx?id=112.1000037105", "is_ancient": "False", "source": "museovirasto" }, "geometry": { "type": "Point", "coordinates": [ 30.216896281565493, 62.476500820432996 ] } },
{ "type": "Feature", "properties": { "id": 1000037297, "town": "Uusikaupunki", "name": "Pehr Brahe", "created_at": "2019-12-11", "type": "alusten hylyt,  ,  ,", "location_accuracy": null, "url": "www.kyppi.fi/to.aspx?id=112.1000037297", "is_ancient": "1", "source": "museovirasto" }, "geometry": { "type": "Point", "coordinates": [ 20.72876209886747, 61.018227780649532 ] } },
{ "type": "Feature", "properties": { "id": 1000039386, "town": "Pälkäne", "name": "Pirtlahti Karjusaari", "created_at": "2020-09-29", "type": "työ- ja valmistuspaikat,  ,  ,", "location_accuracy": null, "url": "www.kyppi.fi/to.aspx?id=112.1000039386", "is_ancient": "False", "source": "museovirasto" }, "geometry": { "type": "Point", "coordinates": [ 24.349921167888677, 61.395029962407783 ] } },
{ "type": "Feature", "properties": { "id": 1000037328, "town": "Savonlinna", "name": "Kaupinniemi", "created_at": "2019-12-17", "type": "alusten hylyt,  ,  ,", "location_accuracy": null, "url": "www.kyppi.fi/to.aspx?id=112.1000037328", "is_ancient": "False", "source": "museovirasto" }, "geometry": { "type": "Point", "coordinates": [ 29.380024582533906, 61.706459753588639 ] } },
{ "type": "Feature", "properties": { "id": 1000041010, "town": "Parainen", "name": "Kopparö", "created_at": "2021-05-05", "type": "alusten hylyt,  ,  ,", "location_accuracy": null, "url": "www.kyppi.fi/to.aspx?id=112.1000041010", "is_ancient": "1", "source": "museovirasto" }, "geometry": { "type": "Point", "coordinates": [ 22.229342095506411, 60.251865420847281 ] } },
{ "type": "Feature", "properties": { "id": 1000041288, "town": "Raasepori", "name": "Skogbyfjärden 2", "created_at": "2021-06-16", "type": "alusten hylyt,  ,  ,", "location_accuracy": null, "url": "www.kyppi.fi/to.aspx?id=112.1000041288", "is_ancient": "False", "source": "museovirasto" }, "geometry": { "type": "Point", "coordinates": [ 23.321325096678343, 59.921586231294263 ] } },
{ "type": "Feature", "properties": { "id": 2256, "town": "Raasepori", "name": "Rödstensudden", "created_at": "2021-06-16", "type": "alusten hylyt,  ,  ,", "location_accuracy": null, "url": "www.kyppi.fi/to.aspx?id=112.2256", "is_ancient": "1", "source": "museovirasto" }, "geometry": { "type": "Point", "coordinates": [ 23.331958975686195, 59.92597260133175 ] } },
{ "type": "Feature", "properties": { "id": 1000041247, "town": "Parainen", "name": "Bölen ranta 2", "created_at": "2021-06-11", "type": "kulkuväylät,  ,  ,", "location_accuracy": null, "url": "www.kyppi.fi/to.aspx?id=112.1000041247", "is_ancient": "False", "source": "museovirasto" }, "geometry": { "type": "Point", "coordinates": [ 21.410652381476346, 60.20721790980582 ] } },
{ "type": "Feature", "properties": { "id": 1000041287, "town": "Raasepori", "name": "Skogbyfjärden", "created_at": "2021-06-16", "type": "alusten hylyt,  ,  ,", "location_accuracy": null, "url": "www.kyppi.fi/to.aspx?id=112.1000041287", "is_ancient": "1", "source": "museovirasto" }, "geometry": { "type": "Point", "coordinates": [ 23.342870326937884, 59.923965960744155 ] } },
{ "type": "Feature", "properties": { "id": 1000041246, "town": "Parainen", "name": "Bölen ranta 1", "created_at": "2021-06-11", "type": "alusten hylyt,  ,  ,", "location_accuracy": null, "url": "www.kyppi.fi/to.aspx?id=112.1000041246", "is_ancient": "1", "source": "museovirasto" }, "geometry": { "type": "Point", "coordinates": [ 21.410215838363616, 60.207550485658984 ] } },
{ "type": "Feature", "properties": { "id": 1000037598, "town": "Kemiönsaari", "name": "Lindholmen 2", "created_at": "2020-01-22", "type": "puurakenteet,  ,  ,", "location_accuracy": null, "url": "www.kyppi.fi/to.aspx?id=112.1000037598", "is_ancient": "False", "source": "museovirasto" }, "geometry": { "type": "Point", "coordinates": [ 22.390162050780493, 59.996298209660807 ] } },
{ "type": "Feature", "properties": { "id": 1000039818, "town": "Savitaipale", "name": "Solkein kanava", "created_at": "2020-12-01", "type": "kulkuväylät,  ,  ,", "location_accuracy": null, "url": "www.kyppi.fi/to.aspx?id=112.1000039818", "is_ancient": "False", "source": "museovirasto" }, "geometry": { "type": "Point", "coordinates": [ 27.826845149284861, 61.25914249114745 ] } },
{ "type": "Feature", "properties": { "id": 1000039825, "town": "Helsinki", "name": "Yliskylänlahti 2", "created_at": "2020-12-02", "type": "alusten hylyt,  ,  ,", "location_accuracy": null, "url": "www.kyppi.fi/to.aspx?id=112.1000039825", "is_ancient": "False", "source": "museovirasto" }, "geometry": { "type": "Point", "coordinates": [ 25.041054913707946, 60.183516408076791 ] } },
{ "type": "Feature", "properties": { "id": 1000039826, "town": "Helsinki", "name": "Killingholma 1", "created_at": "2020-12-02", "type": "kulkuväylät,  ,  ,", "location_accuracy": null, "url": "www.kyppi.fi/to.aspx?id=112.1000039826", "is_ancient": "False", "source": "museovirasto" }, "geometry": { "type": "Point", "coordinates": [ 25.035877524197659, 60.184149337538045 ] } },
{ "type": "Feature", "properties": { "id": 1000038130, "town": "Pelkosenniemi", "name": "Pyhäjärvi 2", "created_at": "2020-03-27", "type": "työ- ja valmistuspaikat,  ,  ,", "location_accuracy": null, "url": "www.kyppi.fi/to.aspx?id=112.1000038130", "is_ancient": "False", "source": "museovirasto" }, "geometry": { "type": "Point", "coordinates": [ 27.216725641254143, 67.066322526285816 ] } },
{ "type": "Feature", "properties": { "id": 1000040573, "town": "Helsinki", "name": "Matosaari 5", "created_at": "2021-03-05", "type": "löytöpaikat,  ,  ,", "location_accuracy": null, "url": "www.kyppi.fi/to.aspx?id=112.1000040573", "is_ancient": "False", "source": "museovirasto" }, "geometry": { "type": "Point", "coordinates": [ 25.080444292257507, 60.154713987757958 ] } },
{ "type": "Feature", "properties": { "id": 1000039827, "town": "Helsinki", "name": "Killingholma 2", "created_at": "2020-12-02", "type": "kulkuväylät,  ,  ,", "location_accuracy": null, "url": "www.kyppi.fi/to.aspx?id=112.1000039827", "is_ancient": "False", "source": "museovirasto" }, "geometry": { "type": "Point", "coordinates": [ 25.035562308265341, 60.183991977469184 ] } },
{ "type": "Feature", "properties": { "id": 1000037581, "town": "Merikarvia", "name": "Haminaholma 7", "created_at": "2020-01-21", "type": "kulkuväylät,  ,  ,", "location_accuracy": null, "url": "www.kyppi.fi/to.aspx?id=112.1000037581", "is_ancient": "False", "source": "museovirasto" }, "geometry": { "type": "Point", "coordinates": [ 21.542857495479531, 61.748916848206726 ] } },
{ "type": "Feature", "properties": { "id": 1000037596, "town": "Kemiönsaari", "name": "Krogarudden 4", "created_at": "2020-01-22", "type": "kulkuväylät,  ,  ,", "location_accuracy": null, "url": "www.kyppi.fi/to.aspx?id=112.1000037596", "is_ancient": "False", "source": "museovirasto" }, "geometry": { "type": "Point", "coordinates": [ 22.393865754749051, 60.001032533761453 ] } },
{ "type": "Feature", "properties": { "id": 290010138, "town": "Kuhmo", "name": "Hiltulanniemi", "created_at": "2001-12-11", "type": "asuinpaikat,  ,  ,", "location_accuracy": null, "url": "www.kyppi.fi/to.aspx?id=112.290010138", "is_ancient": "False", "source": "museovirasto" }, "geometry": { "type": "Point", "coordinates": [ 29.380728422685014, 64.126553098405836 ] } },
{ "type": "Feature", "properties": { "id": 290010027, "town": "Kuhmo", "name": "Tahkoniva", "created_at": "2001-11-26", "type": "työ- ja valmistuspaikat,  ,  ,", "location_accuracy": null, "url": "www.kyppi.fi/to.aspx?id=112.290010027", "is_ancient": "False", "source": "museovirasto" }, "geometry": { "type": "Point", "coordinates": [ 30.233673289700221, 64.316329019366734 ] } },
{ "type": "Feature", "properties": { "id": 1000037851, "town": "Pori", "name": "Vähä-Enskeri 1", "created_at": "2020-02-14", "type": "löytöpaikat,  ,  ,", "location_accuracy": null, "url": "www.kyppi.fi/to.aspx?id=112.1000037851", "is_ancient": "False", "source": "museovirasto" }, "geometry": { "type": "Point", "coordinates": [ 21.382414811769795, 61.659928214570613 ] } },
{ "type": "Feature", "properties": { "id": 1000040624, "town": "Kemiönsaari", "name": "Hästholmen", "created_at": "2021-03-10", "type": "alusten hylyt,  ,  ,", "location_accuracy": null, "url": "www.kyppi.fi/to.aspx?id=112.1000040624", "is_ancient": "False", "source": "museovirasto" }, "geometry": { "type": "Point", "coordinates": [ 22.435694700932505, 59.960658449215593 ] } },
{ "type": "Feature", "properties": { "id": 1000037932, "town": "Kotka", "name": "Kymijoki Kyminlinna 3", "created_at": "2020-02-25", "type": "työ- ja valmistuspaikat,  ,  ,", "location_accuracy": null, "url": "www.kyppi.fi/to.aspx?id=112.1000037932", "is_ancient": "False", "source": "museovirasto" }, "geometry": { "type": "Point", "coordinates": [ 26.879704548455841, 60.506354991406475 ] } },
{ "type": "Feature", "properties": { "id": 1000038635, "town": "Loviisa", "name": "Loviisanlahti Märlaxviken", "created_at": "2020-05-20", "type": "alusten hylyt,  ,  ,", "location_accuracy": null, "url": "www.kyppi.fi/to.aspx?id=112.1000038635", "is_ancient": "1", "source": "museovirasto" }, "geometry": { "type": "Point", "coordinates": [ 26.246318235364235, 60.45140399903913 ] } },
{ "type": "Feature", "properties": { "id": 1000037599, "town": "Eurajoki", "name": "Pirskeri 1", "created_at": "2020-01-22", "type": "puurakenteet,  ,  ,", "location_accuracy": null, "url": "www.kyppi.fi/to.aspx?id=112.1000037599", "is_ancient": "False", "source": "museovirasto" }, "geometry": { "type": "Point", "coordinates": [ 21.434051034011816, 61.383957299420146 ] } },
{ "type": "Feature", "properties": { "id": 1000037929, "town": "Tampere", "name": "Viinikanlahti", "created_at": "2020-02-24", "type": "kulkuväylät,  ,  ,", "location_accuracy": null, "url": "www.kyppi.fi/to.aspx?id=112.1000037929", "is_ancient": "False", "source": "museovirasto" }, "geometry": { "type": "Point", "coordinates": [ 23.767318725485243, 61.489968476971441 ] } },
{ "type": "Feature", "properties": { "id": 1000037580, "town": "Merikarvia", "name": "Sahaviiki 1", "created_at": "2020-01-21", "type": "tapahtumapaikat,  ,  ,", "location_accuracy": null, "url": "www.kyppi.fi/to.aspx?id=112.1000037580", "is_ancient": "False", "source": "museovirasto" }, "geometry": { "type": "Point", "coordinates": [ 21.537739255387159, 61.748874558279091 ] } },
{ "type": "Feature", "properties": { "id": 1000039427, "town": "Jyväskylä", "name": "Äijälänsalmi", "created_at": "2020-10-01", "type": "löytöpaikat,  ,  ,", "location_accuracy": null, "url": "www.kyppi.fi/to.aspx?id=112.1000039427", "is_ancient": "False", "source": "museovirasto" }, "geometry": { "type": "Point", "coordinates": [ 25.800415607320261, 62.230113092456151 ] } },
{ "type": "Feature", "properties": { "id": 1000037409, "town": "Parainen", "name": "Kuggvik 2", "created_at": "2019-12-20", "type": "kulkuväylät,  ,  ,", "location_accuracy": null, "url": "www.kyppi.fi/to.aspx?id=112.1000037409", "is_ancient": "False", "source": "museovirasto" }, "geometry": { "type": "Point", "coordinates": [ 21.538312504432518, 60.161730040806688 ] } },
{ "type": "Feature", "properties": { "id": 1000040627, "town": "Parainen", "name": "Skräbböle", "created_at": "2021-03-11", "type": "alusten hylyt,  ,  ,", "location_accuracy": null, "url": "www.kyppi.fi/to.aspx?id=112.1000040627", "is_ancient": "1", "source": "museovirasto" }, "geometry": { "type": "Point", "coordinates": [ 22.287037951743557, 60.27698315546705 ] } },
{ "type": "Feature", "properties": { "id": 1000039819, "town": "Virolahti", "name": "Mustamaa pohjoispuoli", "created_at": "2020-12-01", "type": "alusten hylyt,  ,  ,", "location_accuracy": null, "url": "www.kyppi.fi/to.aspx?id=112.1000039819", "is_ancient": "1", "source": "museovirasto" }, "geometry": { "type": "Point", "coordinates": [ 27.546090417819244, 60.443302330560236 ] } },
{ "type": "Feature", "properties": { "id": 1000038131, "town": "Pelkosenniemi", "name": "Pyhäjärvi 3", "created_at": "2020-03-27", "type": "työ- ja valmistuspaikat,  ,  ,", "location_accuracy": null, "url": "www.kyppi.fi/to.aspx?id=112.1000038131", "is_ancient": "False", "source": "museovirasto" }, "geometry": { "type": "Point", "coordinates": [ 27.224718371125849, 67.062723297864494 ] } },
{ "type": "Feature", "properties": { "id": 1000038665, "town": "Loviisa", "name": "Loviisanlahti Rantapuisto", "created_at": "2020-05-27", "type": "kulkuväylät,  ,  ,", "location_accuracy": null, "url": "www.kyppi.fi/to.aspx?id=112.1000038665", "is_ancient": "False", "source": "museovirasto" }, "geometry": { "type": "Point", "coordinates": [ 26.23511625770243, 60.454698370256224 ] } },
{ "type": "Feature", "properties": { "id": 1000038632, "town": "Helsinki", "name": "Merisatama 2", "created_at": "2020-05-20", "type": "alusten hylyt,  ,  ,", "location_accuracy": null, "url": "www.kyppi.fi/to.aspx?id=112.1000038632", "is_ancient": "False", "source": "museovirasto" }, "geometry": { "type": "Point", "coordinates": [ 24.945428048161034, 60.152239441178111 ] } },
{ "type": "Feature", "properties": { "id": 1000038834, "town": "Sodankylä", "name": "Saittajoki 1", "created_at": "2020-07-02", "type": "teollisuuskohteet,  ,  ,", "location_accuracy": null, "url": "www.kyppi.fi/to.aspx?id=112.1000038834", "is_ancient": "False", "source": "museovirasto" }, "geometry": { "type": "Point", "coordinates": [ 25.88760102981869, 67.592576346090937 ] } },
{ "type": "Feature", "properties": { "id": 1000038633, "town": "Helsinki", "name": "Merisatama 3", "created_at": "2020-05-20", "type": "alusten hylyt,  ,  ,", "location_accuracy": null, "url": "www.kyppi.fi/to.aspx?id=112.1000038633", "is_ancient": "False", "source": "museovirasto" }, "geometry": { "type": "Point", "coordinates": [ 24.945876911726284, 60.152264367147772 ] } },
{ "type": "Feature", "properties": { "id": 1000038666, "town": "Loviisa", "name": "Väinö", "created_at": "2020-05-27", "type": "alusten hylyt,  ,  ,", "location_accuracy": null, "url": "www.kyppi.fi/to.aspx?id=112.1000038666", "is_ancient": "False", "source": "museovirasto" }, "geometry": { "type": "Point", "coordinates": [ 26.249649631365919, 60.451189334699919 ] } },
{ "type": "Feature", "properties": { "id": 1000039172, "town": "Jämsä", "name": "Tulokasniemi Syväjärvi", "created_at": "2020-08-21", "type": "alusten hylyt,  ,  ,", "location_accuracy": null, "url": "www.kyppi.fi/to.aspx?id=112.1000039172", "is_ancient": "False", "source": "museovirasto" }, "geometry": { "type": "Point", "coordinates": [ 24.749663209030626, 61.702858728224577 ] } },
{ "type": "Feature", "properties": { "id": 1000039128, "town": "Helsinki", "name": "Iso Mustasaari 19", "created_at": "2020-08-17", "type": "kulkuväylät,  ,  ,", "location_accuracy": null, "url": "www.kyppi.fi/to.aspx?id=112.1000039128", "is_ancient": "False", "source": "museovirasto" }, "geometry": { "type": "Point", "coordinates": [ 24.992442091685788, 60.146493445986984 ] } },
{ "type": "Feature", "properties": { "id": 1000040661, "town": "Kokkola", "name": "Nicolina", "created_at": "2021-03-15", "type": "alusten hylyt,  ,  ,", "location_accuracy": null, "url": "www.kyppi.fi/to.aspx?id=112.1000040661", "is_ancient": "False", "source": "museovirasto" }, "geometry": { "type": "Point", "coordinates": [ 22.841224023395522, 63.94768765782473 ] } },
{ "type": "Feature", "properties": { "id": 1000038634, "town": "Helsinki", "name": "Merisatama 4", "created_at": "2020-05-20", "type": "kulkuväylät,  ,  ,", "location_accuracy": null, "url": "www.kyppi.fi/to.aspx?id=112.1000038634", "is_ancient": "False", "source": "museovirasto" }, "geometry": { "type": "Point", "coordinates": [ 24.94493708892885, 60.152600085183309 ] } },
{ "type": "Feature", "properties": { "id": 1000038444, "town": "Helsinki", "name": "Merisatama 1", "created_at": "2020-04-24", "type": "alusten hylyt,  ,  ,", "location_accuracy": null, "url": "www.kyppi.fi/to.aspx?id=112.1000038444", "is_ancient": "1", "source": "museovirasto" }, "geometry": { "type": "Point", "coordinates": [ 24.945587797721888, 60.152277846993897 ] } },
{ "type": "Feature", "properties": { "id": 1000040576, "town": "Parainen", "name": "Fallsundet", "created_at": "2021-03-05", "type": "alusten hylyt,  ,  ,", "location_accuracy": null, "url": "www.kyppi.fi/to.aspx?id=112.1000040576", "is_ancient": "False", "source": "museovirasto" }, "geometry": { "type": "Point", "coordinates": [ 22.230773195313851, 60.25135927526339 ] } },
{ "type": "Feature", "properties": { "id": 1000043210, "town": "Loviisa", "name": "Rönnäs 3", "created_at": "2022-01-20", "type": "löytöpaikat,  ,  ,", "location_accuracy": null, "url": "www.kyppi.fi/to.aspx?id=112.1000043210", "is_ancient": "False", "source": "museovirasto" }, "geometry": { "type": "Point", "coordinates": [ 26.055776241781924, 60.366997185815428 ] } },
{ "type": "Feature", "properties": { "id": 1000038608, "town": "Helsinki", "name": "Rysäkivi", "created_at": "2020-05-12", "type": "alusten hylyt,  ,  ,", "location_accuracy": null, "url": "www.kyppi.fi/to.aspx?id=112.1000038608", "is_ancient": "1", "source": "museovirasto" }, "geometry": { "type": "Point", "coordinates": [ 24.850381241761003, 60.104310528700012 ] } },
{ "type": "Feature", "properties": { "id": 1000037829, "town": "Kotka", "name": "Kymijoki Kyminlinna 2", "created_at": "2020-02-10", "type": "kulkuväylät,  ,  ,", "location_accuracy": null, "url": "www.kyppi.fi/to.aspx?id=112.1000037829", "is_ancient": "False", "source": "museovirasto" }, "geometry": { "type": "Point", "coordinates": [ 26.888989714181303, 60.511839968293444 ] } },
{ "type": "Feature", "properties": { "id": 1000039482, "town": "Kotka", "name": "Virolaisenpohja", "created_at": "2020-10-09", "type": "puurakenteet,  ,  ,", "location_accuracy": null, "url": "www.kyppi.fi/to.aspx?id=112.1000039482", "is_ancient": "False", "source": "museovirasto" }, "geometry": { "type": "Point", "coordinates": [ 26.905208855226014, 60.476575569350949 ] } },
{ "type": "Feature", "properties": { "id": 1000039486, "town": "Pälkäne", "name": "Pirtlahti länsi", "created_at": "2020-10-09", "type": "työ- ja valmistuspaikat,  ,  ,", "location_accuracy": null, "url": "www.kyppi.fi/to.aspx?id=112.1000039486", "is_ancient": "False", "source": "museovirasto" }, "geometry": { "type": "Point", "coordinates": [ 24.346554649418202, 61.39297916888512 ] } },
{ "type": "Feature", "properties": { "id": 1000039538, "town": "Sodankylä", "name": "Köngäslampi 2", "created_at": "2020-10-20", "type": "teollisuuskohteet,  ,  ,", "location_accuracy": null, "url": "www.kyppi.fi/to.aspx?id=112.1000039538", "is_ancient": "False", "source": "museovirasto" }, "geometry": { "type": "Point", "coordinates": [ 26.529583486354081, 66.997796692107315 ] } },
{ "type": "Feature", "properties": { "id": 1000039473, "town": "Loviisa", "name": "Lukusundet", "created_at": "2020-10-06", "type": "löytöpaikat,  ,  ,", "location_accuracy": null, "url": "www.kyppi.fi/to.aspx?id=112.1000039473", "is_ancient": "False", "source": "museovirasto" }, "geometry": { "type": "Point", "coordinates": [ 26.104753881714778, 60.345596692262106 ] } },
{ "type": "Feature", "properties": { "id": 1000039138, "town": "Rautjärvi", "name": "Kivilampi", "created_at": "2020-08-18", "type": "löytöpaikat,  ,  ,", "location_accuracy": null, "url": "www.kyppi.fi/to.aspx?id=112.1000039138", "is_ancient": "False", "source": "museovirasto" }, "geometry": { "type": "Point", "coordinates": [ 29.178293640420421, 61.306444570213472 ] } },
{ "type": "Feature", "properties": { "id": 785010022, "town": "Vaala", "name": "Nimisjoki alaosa", "created_at": "2001-02-22", "type": "työ- ja valmistuspaikat,  ,  ,", "location_accuracy": null, "url": "www.kyppi.fi/to.aspx?id=112.785010022", "is_ancient": "False", "source": "museovirasto" }, "geometry": { "type": "Point", "coordinates": [ 26.795541204265728, 64.510824974231014 ] } },
{ "type": "Feature", "properties": { "id": 832010010, "town": "Taivalkoski", "name": "Kovio-Tyräjärvi Salmi", "created_at": "2001-12-20", "type": "työ- ja valmistuspaikat,  ,  ,", "location_accuracy": null, "url": "www.kyppi.fi/to.aspx?id=112.832010010", "is_ancient": "False", "source": "museovirasto" }, "geometry": { "type": "Point", "coordinates": [ 28.83735316957307, 65.482192296162125 ] } },
{ "type": "Feature", "properties": { "id": 1000039115, "town": "Lieksa", "name": "Häkinlahti", "created_at": "2020-08-17", "type": "löytöpaikat,  ,  ,", "location_accuracy": null, "url": "www.kyppi.fi/to.aspx?id=112.1000039115", "is_ancient": "False", "source": "museovirasto" }, "geometry": { "type": "Point", "coordinates": [ 29.831830470580819, 63.172297295676294 ] } },
{ "type": "Feature", "properties": { "id": 1000039126, "town": "Lieksa", "name": "Kuikkaniemi", "created_at": "2020-08-17", "type": "löytöpaikat,  ,  ,", "location_accuracy": null, "url": "www.kyppi.fi/to.aspx?id=112.1000039126", "is_ancient": "False", "source": "museovirasto" }, "geometry": { "type": "Point", "coordinates": [ 30.14831942706007, 63.390339795493318 ] } },
{ "type": "Feature", "properties": { "id": 785010050, "town": "Vaala", "name": "Lapinsalmi", "created_at": "2000-11-09", "type": "työ- ja valmistuspaikat,  ,  ,", "location_accuracy": null, "url": "www.kyppi.fi/to.aspx?id=112.785010050", "is_ancient": "False", "source": "museovirasto" }, "geometry": { "type": "Point", "coordinates": [ 27.01984947485662, 64.655377919807023 ] } },
{ "type": "Feature", "properties": { "id": 1000038129, "town": "Pelkosenniemi", "name": "Pyhäjärvi 1", "created_at": "2020-03-27", "type": "työ- ja valmistuspaikat,  ,  ,", "location_accuracy": null, "url": "www.kyppi.fi/to.aspx?id=112.1000038129", "is_ancient": "False", "source": "museovirasto" }, "geometry": { "type": "Point", "coordinates": [ 27.207519174139506, 67.065437729598372 ] } },
{ "type": "Feature", "properties": { "id": 1000039242, "town": "Kuhmoinen", "name": "Kukkarontakot", "created_at": "2020-09-04", "type": "alusten hylyt,  ,  ,", "location_accuracy": null, "url": "www.kyppi.fi/to.aspx?id=112.1000039242", "is_ancient": "False", "source": "museovirasto" }, "geometry": { "type": "Point", "coordinates": [ 25.364505818554477, 61.516757587897828 ] } },
{ "type": "Feature", "properties": { "id": 1000039244, "town": "Kuhmoinen", "name": "Papinsaari itäpuoli", "created_at": "2020-09-04", "type": "alusten hylyt,  ,  ,", "location_accuracy": null, "url": "www.kyppi.fi/to.aspx?id=112.1000039244", "is_ancient": "False", "source": "museovirasto" }, "geometry": { "type": "Point", "coordinates": [ 25.190869567502183, 61.554929086389897 ] } },
{ "type": "Feature", "properties": { "id": 1000039231, "town": "Valkeakoski", "name": "Lokomo I", "created_at": "2020-09-01", "type": "alusten hylyt,  ,  ,", "location_accuracy": null, "url": "www.kyppi.fi/to.aspx?id=112.1000039231", "is_ancient": "False", "source": "museovirasto" }, "geometry": { "type": "Point", "coordinates": [ 23.984132476573489, 61.236779964615387 ] } },
{ "type": "Feature", "properties": { "id": 1000039483, "town": "Pälkäne", "name": "Soukkionlahti", "created_at": "2020-10-09", "type": "työ- ja valmistuspaikat,  ,  ,", "location_accuracy": null, "url": "www.kyppi.fi/to.aspx?id=112.1000039483", "is_ancient": "False", "source": "museovirasto" }, "geometry": { "type": "Point", "coordinates": [ 24.340751304399202, 61.392497528142783 ] } },
{ "type": "Feature", "properties": { "id": 1000039241, "town": "Kuhmoinen", "name": "Rautsaarenkärki länsipuoli", "created_at": "2020-09-04", "type": "alusten hylyt,  ,  ,", "location_accuracy": null, "url": "www.kyppi.fi/to.aspx?id=112.1000039241", "is_ancient": "False", "source": "museovirasto" }, "geometry": { "type": "Point", "coordinates": [ 25.192032284214921, 61.548856309051871 ] } },
{ "type": "Feature", "properties": { "id": 1000038443, "town": "Raasepori", "name": "Gloskär 2", "created_at": "2020-04-24", "type": "alusten hylyt,  ,  ,", "location_accuracy": null, "url": "www.kyppi.fi/to.aspx?id=112.1000038443", "is_ancient": "False", "source": "museovirasto" }, "geometry": { "type": "Point", "coordinates": [ 23.329741340821059, 59.861966084986946 ] } },
{ "type": "Feature", "properties": { "id": 831010043, "town": "Taipalsaari", "name": "Simolinna", "created_at": "2000-01-17", "type": "asuinpaikat,  ,  ,", "location_accuracy": null, "url": "www.kyppi.fi/to.aspx?id=112.831010043", "is_ancient": "False", "source": "museovirasto" }, "geometry": { "type": "Point", "coordinates": [ 27.881070857954722, 61.161135741226722 ] } },
{ "type": "Feature", "properties": { "id": 1000039218, "town": "Helsinki", "name": "Vanhankaupunginkoski 1", "created_at": "2020-08-27", "type": "alusten hylyt,  ,  ,", "location_accuracy": null, "url": "www.kyppi.fi/to.aspx?id=112.1000039218", "is_ancient": "False", "source": "museovirasto" }, "geometry": { "type": "Point", "coordinates": [ 24.983391381503722, 60.214833385961235 ] } },
{ "type": "Feature", "properties": { "id": 1000039485, "town": "Pälkäne", "name": "Pirtlahti Rantala", "created_at": "2020-10-09", "type": "työ- ja valmistuspaikat,  ,  ,", "location_accuracy": null, "url": "www.kyppi.fi/to.aspx?id=112.1000039485", "is_ancient": "False", "source": "museovirasto" }, "geometry": { "type": "Point", "coordinates": [ 24.35235187150877, 61.391322587033102 ] } },
{ "type": "Feature", "properties": { "id": 1000001480, "town": "Jämsä", "name": "Arvaja Tuiskujärvi", "created_at": "2004-03-16", "type": "työ- ja valmistuspaikat,  ,  ,", "location_accuracy": null, "url": "www.kyppi.fi/to.aspx?id=112.1000001480", "is_ancient": "False", "source": "museovirasto" }, "geometry": { "type": "Point", "coordinates": [ 25.236120004500883, 61.758790325790898 ] } },
{ "type": "Feature", "properties": { "id": 1000039545, "town": "Sodankylä", "name": "Seipäjoki 1", "created_at": "2020-10-21", "type": "teollisuuskohteet,  ,  ,", "location_accuracy": null, "url": "www.kyppi.fi/to.aspx?id=112.1000039545", "is_ancient": "False", "source": "museovirasto" }, "geometry": { "type": "Point", "coordinates": [ 26.233028956390093, 67.080862952408097 ] } },
{ "type": "Feature", "properties": { "id": 1000039615, "town": "Loviisa", "name": "Tavistholmen länsipuoli", "created_at": "2020-10-27", "type": "alusten hylyt,  ,  ,", "location_accuracy": null, "url": "www.kyppi.fi/to.aspx?id=112.1000039615", "is_ancient": "False", "source": "museovirasto" }, "geometry": { "type": "Point", "coordinates": [ 26.23843094592802, 60.39541046055534 ] } },
{ "type": "Feature", "properties": { "id": 1000039705, "town": "Pori", "name": "Avomerihylky", "created_at": "2020-11-10", "type": "alusten hylyt,  ,  ,", "location_accuracy": null, "url": "www.kyppi.fi/to.aspx?id=112.1000039705", "is_ancient": "False", "source": "museovirasto" }, "geometry": { "type": "Point", "coordinates": [ 21.179203145243005, 61.69529899590939 ] } },
{ "type": "Feature", "properties": { "id": 1185, "town": "Kirkkonummi", "name": "Träskön tynnyrihylky", "created_at": "2021-07-09", "type": "alusten hylyt,  ,  ,", "location_accuracy": null, "url": "www.kyppi.fi/to.aspx?id=112.1185", "is_ancient": "1", "source": "museovirasto" }, "geometry": { "type": "Point", "coordinates": [ 24.371225040045282, 59.957797780322934 ] } },
{ "type": "Feature", "properties": { "id": 1000039740, "town": "Helsinki", "name": "Suomenlinna huoltolaiturin ranta 2", "created_at": "2020-11-17", "type": "alusten hylyt,  ,  ,", "location_accuracy": null, "url": "www.kyppi.fi/to.aspx?id=112.1000039740", "is_ancient": "False", "source": "museovirasto" }, "geometry": { "type": "Point", "coordinates": [ 24.992307351259694, 60.14663511292347 ] } },
{ "type": "Feature", "properties": { "id": 1000041510, "town": "Kirkkonummi", "name": "Källudd", "created_at": "2021-07-23", "type": "alusten hylyt,  ,  ,", "location_accuracy": null, "url": "www.kyppi.fi/to.aspx?id=112.1000041510", "is_ancient": "False", "source": "museovirasto" }, "geometry": { "type": "Point", "coordinates": [ 24.37453853916918, 60.07972219021849 ] } },
{ "type": "Feature", "properties": { "id": 1000040404, "town": "Pori", "name": "Erkinkari", "created_at": "2021-02-11", "type": "löytöpaikat,  ,  ,", "location_accuracy": null, "url": "www.kyppi.fi/to.aspx?id=112.1000040404", "is_ancient": "False", "source": "museovirasto" }, "geometry": { "type": "Point", "coordinates": [ 21.428770435960175, 61.581319004277766 ] } },
{ "type": "Feature", "properties": { "id": 1000040451, "town": "Kirkkonummi", "name": "Langisbådan", "created_at": "2021-02-18", "type": "alusten hylyt,  ,  ,", "location_accuracy": null, "url": "www.kyppi.fi/to.aspx?id=112.1000040451", "is_ancient": "1", "source": "museovirasto" }, "geometry": { "type": "Point", "coordinates": [ 24.486706073815817, 59.933861488681742 ] } },
{ "type": "Feature", "properties": { "id": 1000039716, "town": "Äänekoski", "name": "Risusaari", "created_at": "2020-11-12", "type": "työ- ja valmistuspaikat,  ,  ,", "location_accuracy": null, "url": "www.kyppi.fi/to.aspx?id=112.1000039716", "is_ancient": "False", "source": "museovirasto" }, "geometry": { "type": "Point", "coordinates": [ 25.747317507109912, 62.634777876554054 ] } },
{ "type": "Feature", "properties": { "id": 1000004152, "town": "Rääkkylä", "name": "Siimeslahti", "created_at": "2005-09-05", "type": "työ- ja valmistuspaikat,  ,  ,", "location_accuracy": null, "url": "www.kyppi.fi/to.aspx?id=112.1000004152", "is_ancient": "False", "source": "museovirasto" }, "geometry": { "type": "Point", "coordinates": [ 29.370962964990181, 62.327662565890897 ] } },
{ "type": "Feature", "properties": { "id": 1000001988, "town": "Mänttä-Vilppula", "name": "Ruohosalmi", "created_at": "2004-03-08", "type": "työ- ja valmistuspaikat,  ,  ,", "location_accuracy": null, "url": "www.kyppi.fi/to.aspx?id=112.1000001988", "is_ancient": "False", "source": "museovirasto" }, "geometry": { "type": "Point", "coordinates": [ 24.390844349292301, 62.009722814005677 ] } },
{ "type": "Feature", "properties": { "id": 1000004154, "town": "Rääkkylä", "name": "Vänskänsalmi", "created_at": "2005-09-05", "type": "työ- ja valmistuspaikat,  ,  ,", "location_accuracy": null, "url": "www.kyppi.fi/to.aspx?id=112.1000004154", "is_ancient": "False", "source": "museovirasto" }, "geometry": { "type": "Point", "coordinates": [ 29.587701614869321, 62.310528201818499 ] } },
{ "type": "Feature", "properties": { "id": 1000007857, "town": "Enonkoski", "name": "Aholahti", "created_at": "2007-03-29", "type": "työ- ja valmistuspaikat,  ,  ,", "location_accuracy": null, "url": "www.kyppi.fi/to.aspx?id=112.1000007857", "is_ancient": "False", "source": "museovirasto" }, "geometry": { "type": "Point", "coordinates": [ 28.862162023876333, 62.233375201287593 ] } },
{ "type": "Feature", "properties": { "id": 1000039739, "town": "Helsinki", "name": "Suomenlinna huoltolaiturin ranta 1", "created_at": "2020-11-17", "type": "puurakenteet,  ,  ,", "location_accuracy": null, "url": "www.kyppi.fi/to.aspx?id=112.1000039739", "is_ancient": "False", "source": "museovirasto" }, "geometry": { "type": "Point", "coordinates": [ 24.992442091685788, 60.146493445986984 ] } },
{ "type": "Feature", "properties": { "id": 615010033, "town": "Pudasjärvi", "name": "Marjosaarenpudas", "created_at": "2002-11-15", "type": "työ- ja valmistuspaikat,  ,  ,", "location_accuracy": null, "url": "www.kyppi.fi/to.aspx?id=112.615010033", "is_ancient": "False", "source": "museovirasto" }, "geometry": { "type": "Point", "coordinates": [ 26.609624278812362, 65.310970794119086 ] } },
{ "type": "Feature", "properties": { "id": 615010034, "town": "Pudasjärvi", "name": "Kattilaniva", "created_at": "2002-11-18", "type": "työ- ja valmistuspaikat,  ,  ,", "location_accuracy": null, "url": "www.kyppi.fi/to.aspx?id=112.615010034", "is_ancient": "False", "source": "museovirasto" }, "geometry": { "type": "Point", "coordinates": [ 26.839764222225611, 65.379554048621017 ] } },
{ "type": "Feature", "properties": { "id": 1000040411, "town": "Hanko", "name": "Hangonkylä 2", "created_at": "2021-02-15", "type": "alusten hylyt,  ,  ,", "location_accuracy": null, "url": "www.kyppi.fi/to.aspx?id=112.1000040411", "is_ancient": "False", "source": "museovirasto" }, "geometry": { "type": "Point", "coordinates": [ 22.952234235360578, 59.844379794372237 ] } },
{ "type": "Feature", "properties": { "id": 1000039773, "town": "Kirkkonummi", "name": "Engelskobben 2", "created_at": "2020-11-25", "type": "alusten hylyt,  ,  ,", "location_accuracy": null, "url": "www.kyppi.fi/to.aspx?id=112.1000039773", "is_ancient": "1", "source": "museovirasto" }, "geometry": { "type": "Point", "coordinates": [ 24.459834151220356, 59.932016865083455 ] } },
{ "type": "Feature", "properties": { "id": 1000040417, "town": "Kaskinen", "name": "Lionel", "created_at": "2021-02-15", "type": "alusten hylyt,  ,  ,", "location_accuracy": null, "url": "www.kyppi.fi/to.aspx?id=112.1000040417", "is_ancient": "1", "source": "museovirasto" }, "geometry": { "type": "Point", "coordinates": [ 21.155836876345489, 62.344837680803806 ] } },
{ "type": "Feature", "properties": { "id": 1000040450, "town": "Parainen", "name": "Kyrkfjärden", "created_at": "2021-02-18", "type": "alusten hylyt,  ,  ,", "location_accuracy": null, "url": "www.kyppi.fi/to.aspx?id=112.1000040450", "is_ancient": "False", "source": "museovirasto" }, "geometry": { "type": "Point", "coordinates": [ 22.293954387604451, 60.278506095125273 ] } },
{ "type": "Feature", "properties": { "id": 1000040818, "town": "Helsinki", "name": "Vanhankaupunginkoski 3", "created_at": "2021-03-26", "type": "alusten hylyt,  ,  ,", "location_accuracy": null, "url": "www.kyppi.fi/to.aspx?id=112.1000040818", "is_ancient": "False", "source": "museovirasto" }, "geometry": { "type": "Point", "coordinates": [ 24.983389022580692, 60.215165676151742 ] } },
{ "type": "Feature", "properties": { "id": 1000040819, "town": "Helsinki", "name": "Vanhankaupunginkoski 4", "created_at": "2021-03-26", "type": "alusten hylyt,  ,  ,", "location_accuracy": null, "url": "www.kyppi.fi/to.aspx?id=112.1000040819", "is_ancient": "False", "source": "museovirasto" }, "geometry": { "type": "Point", "coordinates": [ 24.984177608584687, 60.214081887074791 ] } },
{ "type": "Feature", "properties": { "id": 1000042864, "town": "Raasepori", "name": "Storön", "created_at": "2022-01-10", "type": "alusten hylyt,  ,  ,", "location_accuracy": null, "url": "www.kyppi.fi/to.aspx?id=112.1000042864", "is_ancient": "False", "source": "museovirasto" }, "geometry": { "type": "Point", "coordinates": [ 23.086120648199525, 59.956779058546758 ] } },
{ "type": "Feature", "properties": { "id": 1000040817, "town": "Helsinki", "name": "Vanhankaupunginkoski 2", "created_at": "2021-03-26", "type": "alusten hylyt,  ,  ,", "location_accuracy": null, "url": "www.kyppi.fi/to.aspx?id=112.1000040817", "is_ancient": "False", "source": "museovirasto" }, "geometry": { "type": "Point", "coordinates": [ 24.983828608283233, 60.214768179269946 ] } },
{ "type": "Feature", "properties": { "id": 1000040449, "town": "Parainen", "name": "Korsfjärden", "created_at": "2021-02-17", "type": "alusten hylyt,  ,  ,", "location_accuracy": null, "url": "www.kyppi.fi/to.aspx?id=112.1000040449", "is_ancient": "False", "source": "museovirasto" }, "geometry": { "type": "Point", "coordinates": [ 22.166762417241358, 60.248409486311999 ] } },
{ "type": "Feature", "properties": { "id": 1000042885, "town": "Raasepori", "name": "Jomalviken", "created_at": "2022-01-11", "type": "alusten hylyt,  ,  ,", "location_accuracy": null, "url": "www.kyppi.fi/to.aspx?id=112.1000042885", "is_ancient": "1", "source": "museovirasto" }, "geometry": { "type": "Point", "coordinates": [ 23.489808297218772, 59.926902892665979 ] } },
{ "type": "Feature", "properties": { "id": 167040002, "town": "Joensuu", "name": "Iiksenjoki", "created_at": "2002-04-24", "type": "löytöpaikat,  ,  ,", "location_accuracy": null, "url": "www.kyppi.fi/to.aspx?id=112.167040002", "is_ancient": "False", "source": "museovirasto" }, "geometry": { "type": "Point", "coordinates": [ 29.85078203555695, 62.600896666643543 ] } },
{ "type": "Feature", "properties": { "id": 1000042979, "town": "Posio", "name": "Kattavalampi 2", "created_at": "2022-01-13", "type": "työ- ja valmistuspaikat,  ,  ,", "location_accuracy": null, "url": "www.kyppi.fi/to.aspx?id=112.1000042979", "is_ancient": "False", "source": "museovirasto" }, "geometry": { "type": "Point", "coordinates": [ 28.048211018208509, 66.038603604448653 ] } },
{ "type": "Feature", "properties": { "id": 1000042991, "town": "Raasepori", "name": "Notholmen", "created_at": "2022-01-13", "type": "alusten hylyt,  ,  ,", "location_accuracy": null, "url": "www.kyppi.fi/to.aspx?id=112.1000042991", "is_ancient": "1", "source": "museovirasto" }, "geometry": { "type": "Point", "coordinates": [ 23.511874256355256, 59.842636162319337 ] } },
{ "type": "Feature", "properties": { "id": 1000008810, "town": "Sotkamo", "name": "Ristilampi 3", "created_at": "2007-09-05", "type": "teollisuuskohteet,  ,  ,", "location_accuracy": null, "url": "www.kyppi.fi/to.aspx?id=112.1000008810", "is_ancient": "False", "source": "museovirasto" }, "geometry": { "type": "Point", "coordinates": [ 29.034370818518735, 63.870328995540262 ] } },
{ "type": "Feature", "properties": { "id": 1000007327, "town": "Kouvola", "name": "Haasiankoski", "created_at": "2007-01-29", "type": "teollisuuskohteet,  ,  ,", "location_accuracy": null, "url": "www.kyppi.fi/to.aspx?id=112.1000007327", "is_ancient": "False", "source": "museovirasto" }, "geometry": { "type": "Point", "coordinates": [ 26.907210361545562, 61.180857895150872 ] } },
{ "type": "Feature", "properties": { "id": 1000043014, "town": "Helsinki", "name": "Porvarinlahti", "created_at": "2022-01-17", "type": "alusten hylyt,  ,  ,", "location_accuracy": null, "url": "www.kyppi.fi/to.aspx?id=112.1000043014", "is_ancient": "False", "source": "museovirasto" }, "geometry": { "type": "Point", "coordinates": [ 25.184963495087167, 60.227866887787954 ] } },
{ "type": "Feature", "properties": { "id": 1000005153, "town": "Ilomantsi", "name": "Kypönniemi", "created_at": "2006-02-01", "type": "asuinpaikat,  ,  ,", "location_accuracy": null, "url": "www.kyppi.fi/to.aspx?id=112.1000005153", "is_ancient": "False", "source": "museovirasto" }, "geometry": { "type": "Point", "coordinates": [ 30.865971164852741, 62.963726229987309 ] } },
{ "type": "Feature", "properties": { "id": 1000004153, "town": "Rääkkylä", "name": "Majasalmi", "created_at": "2005-09-05", "type": "työ- ja valmistuspaikat,  ,  ,", "location_accuracy": null, "url": "www.kyppi.fi/to.aspx?id=112.1000004153", "is_ancient": "False", "source": "museovirasto" }, "geometry": { "type": "Point", "coordinates": [ 29.531578205612586, 62.313016256192427 ] } },
{ "type": "Feature", "properties": { "id": 1000040448, "town": "Parainen", "name": "Västermälösundet", "created_at": "2021-02-17", "type": "alusten hylyt,  ,  ,", "location_accuracy": null, "url": "www.kyppi.fi/to.aspx?id=112.1000040448", "is_ancient": "False", "source": "museovirasto" }, "geometry": { "type": "Point", "coordinates": [ 22.136127186803353, 60.248025658581433 ] } },
{ "type": "Feature", "properties": { "id": 1000042997, "town": "Sipoo", "name": "Gerda", "created_at": "2022-01-14", "type": "alusten hylyt,  ,  ,", "location_accuracy": null, "url": "www.kyppi.fi/to.aspx?id=112.1000042997", "is_ancient": "False", "source": "museovirasto" }, "geometry": { "type": "Point", "coordinates": [ 25.22648872259883, 60.24268152700661 ] } },
{ "type": "Feature", "properties": { "id": 1000007860, "town": "Enonkoski", "name": "Karjalanlahti", "created_at": "2007-03-29", "type": "työ- ja valmistuspaikat,  ,  ,", "location_accuracy": null, "url": "www.kyppi.fi/to.aspx?id=112.1000007860", "is_ancient": "False", "source": "museovirasto" }, "geometry": { "type": "Point", "coordinates": [ 28.970962661760733, 62.173081527292346 ] } },
{ "type": "Feature", "properties": { "id": 1000012387, "town": "Polvijärvi", "name": "Tyttölampi", "created_at": "2008-10-07", "type": "työ- ja valmistuspaikat,  ,  ,", "location_accuracy": null, "url": "www.kyppi.fi/to.aspx?id=112.1000012387", "is_ancient": "False", "source": "museovirasto" }, "geometry": { "type": "Point", "coordinates": [ 29.449348588184002, 62.730985322991607 ] } },
{ "type": "Feature", "properties": { "id": 1000006069, "town": "Pudasjärvi", "name": "Tuulisalmi", "created_at": "2006-09-05", "type": ", työ- ja valmistuspaikat,  ,", "location_accuracy": null, "url": "www.kyppi.fi/to.aspx?id=112.1000006069", "is_ancient": "False", "source": "museovirasto" }, "geometry": { "type": "Point", "coordinates": [ 26.902353161453473, 65.375481953386242 ] } },
{ "type": "Feature", "properties": { "id": 1000042735, "town": "Uusikaupunki", "name": "Pyhänmaanperä 5", "created_at": "2021-12-28", "type": "alusten hylyt,  ,  ,", "location_accuracy": null, "url": "www.kyppi.fi/to.aspx?id=112.1000042735", "is_ancient": "False", "source": "museovirasto" }, "geometry": { "type": "Point", "coordinates": [ 21.378253752687026, 60.951888963126635 ] } },
{ "type": "Feature", "properties": { "id": 1000042836, "town": "Jämsä", "name": "Siikaselkä 2", "created_at": "2022-01-07", "type": "alusten hylyt,  ,  ,", "location_accuracy": null, "url": "www.kyppi.fi/to.aspx?id=112.1000042836", "is_ancient": "False", "source": "museovirasto" }, "geometry": { "type": "Point", "coordinates": [ 25.376643876483534, 61.89396465302984 ] } },
{ "type": "Feature", "properties": { "id": 1000040920, "town": "Loviisa", "name": "Päronbotten", "created_at": "2021-04-13", "type": "alusten hylyt,  ,  ,", "location_accuracy": null, "url": "www.kyppi.fi/to.aspx?id=112.1000040920", "is_ancient": "1", "source": "museovirasto" }, "geometry": { "type": "Point", "coordinates": [ 26.283911492998648, 60.431462291822022 ] } },
{ "type": "Feature", "properties": { "id": 848040001, "town": "Tohmajärvi", "name": "Lampion mökki", "created_at": "1997-11-21", "type": "löytöpaikat,  ,  ,", "location_accuracy": null, "url": "www.kyppi.fi/to.aspx?id=112.848040001", "is_ancient": "False", "source": "museovirasto" }, "geometry": { "type": "Point", "coordinates": [ 30.055874093103764, 62.332690966167483 ] } },
{ "type": "Feature", "properties": { "id": 1000000842, "town": "Joensuu", "name": "Murtoniemi", "created_at": "2003-12-12", "type": "löytöpaikat,  ,  ,", "location_accuracy": null, "url": "www.kyppi.fi/to.aspx?id=112.1000000842", "is_ancient": "False", "source": "museovirasto" }, "geometry": { "type": "Point", "coordinates": [ 30.164693534502305, 62.807943809369711 ] } },
{ "type": "Feature", "properties": { "id": 1000042865, "town": "Vihti", "name": "Valkealampi", "created_at": "2022-01-10", "type": "alusten hylyt,  ,  ,", "location_accuracy": null, "url": "www.kyppi.fi/to.aspx?id=112.1000042865", "is_ancient": "False", "source": "museovirasto" }, "geometry": { "type": "Point", "coordinates": [ 24.576278673420305, 60.323789690547954 ] } },
{ "type": "Feature", "properties": { "id": 1000000843, "town": "Joensuu", "name": "Niloksenlahti", "created_at": "2003-12-12", "type": "löytöpaikat,  ,  ,", "location_accuracy": null, "url": "www.kyppi.fi/to.aspx?id=112.1000000843", "is_ancient": "False", "source": "museovirasto" }, "geometry": { "type": "Point", "coordinates": [ 30.116547480248549, 62.786884192756098 ] } },
{ "type": "Feature", "properties": { "id": 1000003369, "town": "Kitee", "name": "Seiväslampi", "created_at": "2005-03-04", "type": "alusten hylyt,  ,  ,", "location_accuracy": null, "url": "www.kyppi.fi/to.aspx?id=112.1000003369", "is_ancient": "False", "source": "museovirasto" }, "geometry": { "type": "Point", "coordinates": [ 29.759932037526504, 62.007417556550138 ] } },
{ "type": "Feature", "properties": { "id": 1000009225, "town": "Laukaa", "name": "Kallioranta", "created_at": "2007-10-29", "type": "löytöpaikat,  ,  ,", "location_accuracy": null, "url": "www.kyppi.fi/to.aspx?id=112.1000009225", "is_ancient": "False", "source": "museovirasto" }, "geometry": { "type": "Point", "coordinates": [ 26.179718670531223, 62.304779926233152 ] } },
{ "type": "Feature", "properties": { "id": 1000014091, "town": "Ilmajoki", "name": "Rengonkylän silta", "created_at": "2009-06-02", "type": "kulkuväylät,  ,  ,", "location_accuracy": null, "url": "www.kyppi.fi/to.aspx?id=112.1000014091", "is_ancient": "False", "source": "museovirasto" }, "geometry": { "type": "Point", "coordinates": [ 22.834093308316401, 62.701706661921463 ] } },
{ "type": "Feature", "properties": { "id": 1000003117, "town": "Kitee", "name": "Ravinsuo", "created_at": "2004-12-23", "type": "alusten hylyt,  ,  ,", "location_accuracy": null, "url": "www.kyppi.fi/to.aspx?id=112.1000003117", "is_ancient": "False", "source": "museovirasto" }, "geometry": { "type": "Point", "coordinates": [ 30.061425565860613, 62.184607141269844 ] } },
{ "type": "Feature", "properties": { "id": 1000041147, "town": "Tammela", "name": "Saarijärvi luoteisranta", "created_at": "2021-06-03", "type": "alusten hylyt,  ,  ,", "location_accuracy": null, "url": "www.kyppi.fi/to.aspx?id=112.1000041147", "is_ancient": "False", "source": "museovirasto" }, "geometry": { "type": "Point", "coordinates": [ 24.03734096258686, 60.743449912938182 ] } },
{ "type": "Feature", "properties": { "id": 1000041151, "town": "Loppi", "name": "Iso-Melkutin 4", "created_at": "2021-06-03", "type": "alusten hylyt,  ,  ,", "location_accuracy": null, "url": "www.kyppi.fi/to.aspx?id=112.1000041151", "is_ancient": "False", "source": "museovirasto" }, "geometry": { "type": "Point", "coordinates": [ 24.070998241400485, 60.739670438467407 ] } },
{ "type": "Feature", "properties": { "id": 1000042458, "town": "Kouvola", "name": "Kymijoki Tolkkila", "created_at": "2021-12-03", "type": "kulkuväylät,  ,  ,", "location_accuracy": null, "url": "www.kyppi.fi/to.aspx?id=112.1000042458", "is_ancient": "False", "source": "museovirasto" }, "geometry": { "type": "Point", "coordinates": [ 26.682790949380472, 60.841295387082191 ] } },
{ "type": "Feature", "properties": { "id": 1000040915, "town": "Helsinki", "name": "Merisatama 5", "created_at": "2021-04-12", "type": "alusten hylyt,  ,  ,", "location_accuracy": null, "url": "www.kyppi.fi/to.aspx?id=112.1000040915", "is_ancient": "False", "source": "museovirasto" }, "geometry": { "type": "Point", "coordinates": [ 24.951950297096996, 60.153975168357682 ] } },
{ "type": "Feature", "properties": { "id": 1000042479, "town": "Kuopio", "name": "Kaijansalo", "created_at": "2021-12-07", "type": "alusten hylyt,  ,  ,", "location_accuracy": null, "url": "www.kyppi.fi/to.aspx?id=112.1000042479", "is_ancient": "False", "source": "museovirasto" }, "geometry": { "type": "Point", "coordinates": [ 27.800073333532673, 62.858510154961273 ] } },
{ "type": "Feature", "properties": { "id": 1000006060, "town": "Pudasjärvi", "name": "Kotiseutumuseo", "created_at": "2006-09-04", "type": "asuinpaikat,  ,  ,", "location_accuracy": null, "url": "www.kyppi.fi/to.aspx?id=112.1000006060", "is_ancient": "False", "source": "museovirasto" }, "geometry": { "type": "Point", "coordinates": [ 26.904251923805973, 65.385438414149917 ] } },
{ "type": "Feature", "properties": { "id": 1000042480, "town": "Leppävirta", "name": "Tirronen", "created_at": "2021-12-07", "type": "alusten hylyt,  ,  ,", "location_accuracy": null, "url": "www.kyppi.fi/to.aspx?id=112.1000042480", "is_ancient": "False", "source": "museovirasto" }, "geometry": { "type": "Point", "coordinates": [ 28.096458298163913, 62.654381774713812 ] } },
{ "type": "Feature", "properties": { "id": 1000042481, "town": "Mikkeli", "name": "Ylä-Säynätjärvi", "created_at": "2021-12-07", "type": "alusten hylyt,  ,  ,", "location_accuracy": null, "url": "www.kyppi.fi/to.aspx?id=112.1000042481", "is_ancient": "False", "source": "museovirasto" }, "geometry": { "type": "Point", "coordinates": [ 27.413508711002674, 61.668947473564238 ] } },
{ "type": "Feature", "properties": { "id": 1000002692, "town": "Kontiolahti", "name": "Päivärinne", "created_at": "2004-09-16", "type": "löytöpaikat,  ,  ,", "location_accuracy": null, "url": "www.kyppi.fi/to.aspx?id=112.1000002692", "is_ancient": "False", "source": "museovirasto" }, "geometry": { "type": "Point", "coordinates": [ 29.844248516802821, 62.703582193548264 ] } },
{ "type": "Feature", "properties": { "id": 1000042476, "town": "Leppävirta", "name": "Leppävirta", "created_at": "2021-12-07", "type": "alusten hylyt,  ,  ,", "location_accuracy": null, "url": "www.kyppi.fi/to.aspx?id=112.1000042476", "is_ancient": "False", "source": "museovirasto" }, "geometry": { "type": "Point", "coordinates": [ 27.801572824033656, 62.491886268686066 ] } },
{ "type": "Feature", "properties": { "id": 682010004, "town": "Siikalatva", "name": "Siikajoen kivipadot", "created_at": "2008-12-22", "type": "työ- ja valmistuspaikat,  ,  ,", "location_accuracy": null, "url": "www.kyppi.fi/to.aspx?id=112.682010004", "is_ancient": "False", "source": "museovirasto" }, "geometry": { "type": "Point", "coordinates": [ 25.658338706240201, 64.467802866158806 ] } },
{ "type": "Feature", "properties": { "id": 1000013329, "town": "Pelkosenniemi", "name": "Verkko-ojan tammenpaikka", "created_at": "2008-12-22", "type": "teollisuuskohteet,  ,  ,", "location_accuracy": null, "url": "www.kyppi.fi/to.aspx?id=112.1000013329", "is_ancient": "False", "source": "museovirasto" }, "geometry": { "type": "Point", "coordinates": [ 27.55105296815038, 67.229685884854931 ] } },
{ "type": "Feature", "properties": { "id": 1000011753, "town": "Kokkola", "name": "Halkokari", "created_at": "2008-06-09", "type": "kulkuväylät,  ,  ,", "location_accuracy": null, "url": "www.kyppi.fi/to.aspx?id=112.1000011753", "is_ancient": "False", "source": "museovirasto" }, "geometry": { "type": "Point", "coordinates": [ 23.118207342113543, 63.860053471012492 ] } },
{ "type": "Feature", "properties": { "id": 1000011801, "town": "Keminmaa", "name": "Kirkonkylä Haminasaari", "created_at": "2008-06-16", "type": "työ- ja valmistuspaikat,  ,  ,", "location_accuracy": null, "url": "www.kyppi.fi/to.aspx?id=112.1000011801", "is_ancient": "False", "source": "museovirasto" }, "geometry": { "type": "Point", "coordinates": [ 24.557462597056865, 65.810469825941624 ] } },
{ "type": "Feature", "properties": { "id": 1000015117, "town": "Iisalmi", "name": "Tikankoski", "created_at": "2010-01-14", "type": "löytöpaikat,  ,  ,", "location_accuracy": null, "url": "www.kyppi.fi/to.aspx?id=112.1000015117", "is_ancient": "False", "source": "museovirasto" }, "geometry": { "type": "Point", "coordinates": [ 27.31738023177218, 63.56872855382791 ] } },
{ "type": "Feature", "properties": { "id": 1000015149, "town": "Iisalmi", "name": "Pentankoski", "created_at": "2010-01-14", "type": "löytöpaikat,  ,  ,", "location_accuracy": null, "url": "www.kyppi.fi/to.aspx?id=112.1000015149", "is_ancient": "False", "source": "museovirasto" }, "geometry": { "type": "Point", "coordinates": [ 27.457199531452154, 63.602352034012455 ] } },
{ "type": "Feature", "properties": { "id": 1000014775, "town": "Savonlinna", "name": "Suurijoki", "created_at": "2009-11-20", "type": "työ- ja valmistuspaikat,  ,  ,", "location_accuracy": null, "url": "www.kyppi.fi/to.aspx?id=112.1000014775", "is_ancient": "False", "source": "museovirasto" }, "geometry": { "type": "Point", "coordinates": [ 29.235320858125668, 62.356551279216561 ] } },
{ "type": "Feature", "properties": { "id": 145500010, "town": "Kurikka", "name": "Kyrönjoki Jyllinkosken lohipato", "created_at": "1900-01-01", "type": "työ- ja valmistuspaikat,  ,  ,", "location_accuracy": null, "url": "www.kyppi.fi/to.aspx?id=112.145500010", "is_ancient": "False", "source": "museovirasto" }, "geometry": { "type": "Point", "coordinates": [ 22.39496340754501, 62.593467178247288 ] } },
{ "type": "Feature", "properties": { "id": 1308, "town": "Helsinki", "name": "Retvizan", "created_at": "2001-11-05", "type": "alusten hylyt,  ,  ,", "location_accuracy": "Tarkka (< 10 m)", "url": "www.kyppi.fi/to.aspx?id=112.1308", "is_ancient": "1", "source": "museovirasto" }, "geometry": { "type": "Point", "coordinates": [ 24.969277650282557, 60.149031327632258 ] } },
{ "type": "Feature", "properties": { "id": 1324, "town": "Helsinki", "name": "Kustaanmiekan hylky 2", "created_at": "2001-11-06", "type": "alusten hylyt,  ,  ,", "location_accuracy": null, "url": "www.kyppi.fi/to.aspx?id=112.1324", "is_ancient": "False", "source": "museovirasto" }, "geometry": { "type": "Point", "coordinates": [ 24.990129388221082, 60.137579742835356 ] } },
{ "type": "Feature", "properties": { "id": 1328, "town": "Helsinki", "name": "Särkänsalmen ankkuri", "created_at": "2001-11-06", "type": "löytöpaikat,  ,  ,", "location_accuracy": null, "url": "www.kyppi.fi/to.aspx?id=112.1328", "is_ancient": "False", "source": "museovirasto" }, "geometry": { "type": "Point", "coordinates": [ 24.970657129083293, 60.147715524843974 ] } },
{ "type": "Feature", "properties": { "id": 1337, "town": "Hanko", "name": "Joskär 1", "created_at": "2001-11-07", "type": "alusten hylyt,  ,  ,", "location_accuracy": "Ohjeellinen (10 - 100 m)", "url": "www.kyppi.fi/to.aspx?id=112.1337", "is_ancient": "1", "source": "museovirasto" }, "geometry": { "type": "Point", "coordinates": [ 23.256266612774962, 59.844177633759763 ] } },
{ "type": "Feature", "properties": { "id": 1349, "town": "Hanko", "name": "Svartgrunden 1", "created_at": "2001-11-07", "type": "alusten hylyt,  ,  ,", "location_accuracy": null, "url": "www.kyppi.fi/to.aspx?id=112.1349", "is_ancient": "False", "source": "museovirasto" }, "geometry": { "type": "Point", "coordinates": [ 23.210455281286016, 59.797658484134651 ] } },
{ "type": "Feature", "properties": { "id": 1311, "town": "Helsinki", "name": "Coolaroo", "created_at": "2001-11-06", "type": "alusten hylyt,  ,  ,", "location_accuracy": null, "url": "www.kyppi.fi/to.aspx?id=112.1311", "is_ancient": "False", "source": "museovirasto" }, "geometry": { "type": "Point", "coordinates": [ 24.875778503172466, 60.017554455868968 ] } },
{ "type": "Feature", "properties": { "id": 1313, "town": "Helsinki", "name": "Katajaluodon ankkuri", "created_at": "2001-11-06", "type": "löytöpaikat,  ,  ,", "location_accuracy": null, "url": "www.kyppi.fi/to.aspx?id=112.1313", "is_ancient": "False", "source": "museovirasto" }, "geometry": { "type": "Point", "coordinates": [ 24.91741513617157, 60.102930267514076 ] } },
{ "type": "Feature", "properties": { "id": 1330, "town": "Helsinki", "name": "Iso Koivusaari", "created_at": "2001-11-06", "type": "alusten hylyt,  ,  ,", "location_accuracy": "Suuntaa antava (100 - 1000 m)", "url": "www.kyppi.fi/to.aspx?id=112.1330", "is_ancient": "1", "source": "museovirasto" }, "geometry": { "type": "Point", "coordinates": [ 25.090157623915157, 60.196303821781591 ] } },
{ "type": "Feature", "properties": { "id": 1333, "town": "Helsinki", "name": "Königin Louise", "created_at": "2001-11-06", "type": "alusten hylyt,  ,  ,", "location_accuracy": "Tarkka (< 10 m)", "url": "www.kyppi.fi/to.aspx?id=112.1333", "is_ancient": "1", "source": "museovirasto" }, "geometry": { "type": "Point", "coordinates": [ 24.976593365198198, 60.006801209494618 ] } },
{ "type": "Feature", "properties": { "id": 1354, "town": "Hanko", "name": "Byön", "created_at": "2001-11-07", "type": "alusten hylyt,  ,  ,", "location_accuracy": "Ohjeellinen (10 - 100 m)", "url": "www.kyppi.fi/to.aspx?id=112.1354", "is_ancient": "1", "source": "museovirasto" }, "geometry": { "type": "Point", "coordinates": [ 23.068255689549559, 59.885687920550126 ] } },
{ "type": "Feature", "properties": { "id": 1357, "town": "Hanko", "name": "Alören 2", "created_at": "2001-11-07", "type": "alusten hylyt,  ,  ,", "location_accuracy": "Ohjeellinen (10 - 100 m)", "url": "www.kyppi.fi/to.aspx?id=112.1357", "is_ancient": "1", "source": "museovirasto" }, "geometry": { "type": "Point", "coordinates": [ 23.275769706347813, 59.840149023905795 ] } },
{ "type": "Feature", "properties": { "id": 1360, "town": "Sipoo", "name": "Laxö", "created_at": "2001-11-07", "type": "alusten hylyt,  ,  ,", "location_accuracy": "Ohjeellinen (10 - 100 m)", "url": "www.kyppi.fi/to.aspx?id=112.1360", "is_ancient": "1", "source": "museovirasto" }, "geometry": { "type": "Point", "coordinates": [ 25.419197380836717, 60.197700374132552 ] } },
{ "type": "Feature", "properties": { "id": 1350, "town": "Hanko", "name": "Svartgrunden 2", "created_at": "2001-11-07", "type": "alusten hylyt,  ,  ,", "location_accuracy": "Ohjeellinen (10 - 100 m)", "url": "www.kyppi.fi/to.aspx?id=112.1350", "is_ancient": "1", "source": "museovirasto" }, "geometry": { "type": "Point", "coordinates": [ 23.208094438032692, 59.795523717331108 ] } },
{ "type": "Feature", "properties": { "id": 1355, "town": "Hanko", "name": "MP 1", "created_at": "2001-11-07", "type": "alusten hylyt,  ,  ,", "location_accuracy": null, "url": "www.kyppi.fi/to.aspx?id=112.1355", "is_ancient": "False", "source": "museovirasto" }, "geometry": { "type": "Point", "coordinates": [ 23.268770206095528, 59.845413629369979 ] } },
{ "type": "Feature", "properties": { "id": 1363, "town": "Helsinki", "name": "Iso Mustasaari 1B", "created_at": "2001-11-08", "type": "alusten hylyt,  ,  ,", "location_accuracy": "Ohjeellinen (10 - 100 m)", "url": "www.kyppi.fi/to.aspx?id=112.1363", "is_ancient": "1", "source": "museovirasto" }, "geometry": { "type": "Point", "coordinates": [ 24.992488837673928, 60.147303122113627 ] } },
{ "type": "Feature", "properties": { "id": 1370, "town": "Helsinki", "name": "Susisaaren hylky 2", "created_at": "2001-11-09", "type": "alusten hylyt,  ,  ,", "location_accuracy": "Ohjeellinen (10 - 100 m)", "url": "www.kyppi.fi/to.aspx?id=112.1370", "is_ancient": "1", "source": "museovirasto" }, "geometry": { "type": "Point", "coordinates": [ 24.98950695504287, 60.143055999141261 ] } },
{ "type": "Feature", "properties": { "id": 1371, "town": "Helsinki", "name": "Iso Mustasaari 10", "created_at": "2001-11-09", "type": "alusten hylyt,  ,  ,", "location_accuracy": null, "url": "www.kyppi.fi/to.aspx?id=112.1371", "is_ancient": "False", "source": "museovirasto" }, "geometry": { "type": "Point", "coordinates": [ 24.989372737035779, 60.143781186224544 ] } },
{ "type": "Feature", "properties": { "id": 1404, "town": "Kemiönsaari", "name": "Morgonlandet eteläpuoli", "created_at": "2001-11-12", "type": "alusten hylyt,  ,  ,", "location_accuracy": null, "url": "www.kyppi.fi/to.aspx?id=112.1404", "is_ancient": "False", "source": "museovirasto" }, "geometry": { "type": "Point", "coordinates": [ 22.703243591321804, 59.757924912467701 ] } },
{ "type": "Feature", "properties": { "id": 1367, "town": "Helsinki", "name": "Iso Mustasaari 18", "created_at": "2001-11-08", "type": "alusten hylyt,  ,  ,", "location_accuracy": null, "url": "www.kyppi.fi/to.aspx?id=112.1367", "is_ancient": "False", "source": "museovirasto" }, "geometry": { "type": "Point", "coordinates": [ 24.991489065279925, 60.147162235940947 ] } },
{ "type": "Feature", "properties": { "id": 1378, "town": "Hanko", "name": "Tvärminnen pienvenesatama", "created_at": "2001-11-09", "type": "alusten hylyt,  ,  ,", "location_accuracy": null, "url": "www.kyppi.fi/to.aspx?id=112.1378", "is_ancient": "False", "source": "museovirasto" }, "geometry": { "type": "Point", "coordinates": [ 23.20671080856464, 59.83919891236971 ] } },
{ "type": "Feature", "properties": { "id": 1383, "town": "Hanko", "name": "Bengtsår", "created_at": "2001-11-09", "type": "alusten hylyt,  ,  ,", "location_accuracy": null, "url": "www.kyppi.fi/to.aspx?id=112.1383", "is_ancient": "False", "source": "museovirasto" }, "geometry": { "type": "Point", "coordinates": [ 23.099182562530682, 59.907977465252792 ] } },
{ "type": "Feature", "properties": { "id": 1389, "town": "Hanko", "name": "Byviken", "created_at": "2001-11-12", "type": "löytöpaikat,  ,  ,", "location_accuracy": null, "url": "www.kyppi.fi/to.aspx?id=112.1389", "is_ancient": "False", "source": "museovirasto" }, "geometry": { "type": "Point", "coordinates": [ 23.229229629263692, 59.847825908054617 ] } },
{ "type": "Feature", "properties": { "id": 1393, "town": "Hanko", "name": "Backoholmen", "created_at": "2001-11-12", "type": "alusten hylyt,  ,  ,", "location_accuracy": "Ohjeellinen (10 - 100 m)", "url": "www.kyppi.fi/to.aspx?id=112.1393", "is_ancient": "1", "source": "museovirasto" }, "geometry": { "type": "Point", "coordinates": [ 22.952694750786943, 59.847351879744203 ] } },
{ "type": "Feature", "properties": { "id": 1400, "town": "Hanko", "name": "Lilla Ankargrundet", "created_at": "2001-11-12", "type": "alusten hylyt,  ,  ,", "location_accuracy": "Ohjeellinen (10 - 100 m)", "url": "www.kyppi.fi/to.aspx?id=112.1400", "is_ancient": "1", "source": "museovirasto" }, "geometry": { "type": "Point", "coordinates": [ 22.912379065473893, 59.805453448037845 ] } },
{ "type": "Feature", "properties": { "id": 1401, "town": "Hanko", "name": "Andalskären 1", "created_at": "2001-11-12", "type": "alusten hylyt,  ,  ,", "location_accuracy": "Ohjeellinen (10 - 100 m)", "url": "www.kyppi.fi/to.aspx?id=112.1401", "is_ancient": "1", "source": "museovirasto" }, "geometry": { "type": "Point", "coordinates": [ 23.012347842211952, 59.804545198691429 ] } },
{ "type": "Feature", "properties": { "id": 1403, "town": "Kemiönsaari", "name": "Morgonlandin hylky II", "created_at": "2001-11-12", "type": "alusten hylyt,  ,  ,", "location_accuracy": null, "url": "www.kyppi.fi/to.aspx?id=112.1403", "is_ancient": "False", "source": "museovirasto" }, "geometry": { "type": "Point", "coordinates": [ 22.700987950855893, 59.764790099796372 ] } },
{ "type": "Feature", "properties": { "id": 1409, "town": "Hanko", "name": "Ryssön eteläranta", "created_at": "2001-11-13", "type": "alusten hylyt,  ,  ,", "location_accuracy": "Ohjeellinen (10 - 100 m)", "url": "www.kyppi.fi/to.aspx?id=112.1409", "is_ancient": "1", "source": "museovirasto" }, "geometry": { "type": "Point", "coordinates": [ 22.933486433631312, 59.792259435104036 ] } },
{ "type": "Feature", "properties": { "id": 1420, "town": "Hanko", "name": "Fläckgrundet 1", "created_at": "2001-11-13", "type": "alusten hylyt,  ,  ,", "location_accuracy": null, "url": "www.kyppi.fi/to.aspx?id=112.1420", "is_ancient": "False", "source": "museovirasto" }, "geometry": { "type": "Point", "coordinates": [ 22.836306048703271, 59.869176898938875 ] } },
{ "type": "Feature", "properties": { "id": 1424, "town": "Inkoo", "name": "Degerö", "created_at": "2001-11-13", "type": "alusten hylyt,  ,  ,", "location_accuracy": "Ohjeellinen (10 - 100 m)", "url": "www.kyppi.fi/to.aspx?id=112.1424", "is_ancient": "1", "source": "museovirasto" }, "geometry": { "type": "Point", "coordinates": [ 24.159020785502136, 60.002522581787602 ] } },
{ "type": "Feature", "properties": { "id": 1425, "town": "Inkoo", "name": "Trutgrunden", "created_at": "2001-11-13", "type": "alusten hylyt,  ,  ,", "location_accuracy": "Ohjeellinen (10 - 100 m)", "url": "www.kyppi.fi/to.aspx?id=112.1425", "is_ancient": "1", "source": "museovirasto" }, "geometry": { "type": "Point", "coordinates": [ 24.121915113666855, 59.974271656169307 ] } },
{ "type": "Feature", "properties": { "id": 1304, "town": "Helsinki", "name": "Melkki Vähäkari", "created_at": "2001-11-05", "type": "alusten hylyt,  ,  ,", "location_accuracy": null, "url": "www.kyppi.fi/to.aspx?id=112.1304", "is_ancient": "False", "source": "museovirasto" }, "geometry": { "type": "Point", "coordinates": [ 24.875543924574387, 60.122852381602449 ] } },
{ "type": "Feature", "properties": { "id": 1306, "town": "Helsinki", "name": "Särkänsalmen väyläesteen länsiosa", "created_at": "2001-11-05", "type": "puolustusvarustukset,  ,  ,", "location_accuracy": null, "url": "www.kyppi.fi/to.aspx?id=112.1306", "is_ancient": "False", "source": "museovirasto" }, "geometry": { "type": "Point", "coordinates": [ 24.967400891067143, 60.1494163078371 ] } },
{ "type": "Feature", "properties": { "id": 1317, "town": "Helsinki", "name": "Matalakari 2", "created_at": "2001-11-06", "type": "alusten hylyt,  ,  ,", "location_accuracy": null, "url": "www.kyppi.fi/to.aspx?id=112.1317", "is_ancient": "False", "source": "museovirasto" }, "geometry": { "type": "Point", "coordinates": [ 25.124045929144614, 60.122612637591089 ] } },
{ "type": "Feature", "properties": { "id": 1346, "town": "Hanko", "name": "Spikarnan hylky", "created_at": "2001-11-07", "type": "alusten hylyt,  ,  ,", "location_accuracy": "Ohjeellinen (10 - 100 m)", "url": "www.kyppi.fi/to.aspx?id=112.1346", "is_ancient": "1", "source": "museovirasto" }, "geometry": { "type": "Point", "coordinates": [ 23.201626175936468, 59.810360835227264 ] } },
{ "type": "Feature", "properties": { "id": 1348, "town": "Hanko", "name": "Storlandet lounaispuoli", "created_at": "2001-11-07", "type": "alusten hylyt,  ,  ,", "location_accuracy": null, "url": "www.kyppi.fi/to.aspx?id=112.1348", "is_ancient": "False", "source": "museovirasto" }, "geometry": { "type": "Point", "coordinates": [ 23.229703006221861, 59.813209240677047 ] } },
{ "type": "Feature", "properties": { "id": 1312, "town": "Helsinki", "name": "Pikku-Mustasaari 1", "created_at": "2001-11-06", "type": "alusten hylyt,  ,  ,", "location_accuracy": "Tarkka (< 10 m)", "url": "www.kyppi.fi/to.aspx?id=112.1312", "is_ancient": "1", "source": "museovirasto" }, "geometry": { "type": "Point", "coordinates": [ 24.980559982972398, 60.148612110973374 ] } },
{ "type": "Feature", "properties": { "id": 1314, "town": "Helsinki", "name": "Orion", "created_at": "2001-11-06", "type": "alusten hylyt,  ,  ,", "location_accuracy": "> 1000m", "url": "www.kyppi.fi/to.aspx?id=112.1314", "is_ancient": "1", "source": "museovirasto" }, "geometry": { "type": "Point", "coordinates": [ 24.87888526718551, 60.01917566059884 ] } },
{ "type": "Feature", "properties": { "id": 1315, "town": "Helsinki", "name": "Bändarn 3", "created_at": "2001-11-06", "type": "alusten hylyt,  ,  ,", "location_accuracy": null, "url": "www.kyppi.fi/to.aspx?id=112.1315", "is_ancient": "False", "source": "museovirasto" }, "geometry": { "type": "Point", "coordinates": [ 25.016684458950817, 60.07653336466872 ] } },
{ "type": "Feature", "properties": { "id": 1331, "town": "Helsinki", "name": "Käärmeluodot 2", "created_at": "2001-11-06", "type": "alusten hylyt,  ,  ,", "location_accuracy": null, "url": "www.kyppi.fi/to.aspx?id=112.1331", "is_ancient": "False", "source": "museovirasto" }, "geometry": { "type": "Point", "coordinates": [ 24.84943010700011, 60.146349756006984 ] } },
{ "type": "Feature", "properties": { "id": 1344, "town": "Hanko", "name": "Primus", "created_at": "2001-11-07", "type": "alusten hylyt,  ,  ,", "location_accuracy": "Ohjeellinen (10 - 100 m)", "url": "www.kyppi.fi/to.aspx?id=112.1344", "is_ancient": "1", "source": "museovirasto" }, "geometry": { "type": "Point", "coordinates": [ 23.203413270528937, 59.910845039407782 ] } },
{ "type": "Feature", "properties": { "id": 1351, "town": "Hanko", "name": "Andalskären 2", "created_at": "2001-11-07", "type": "alusten hylyt,  ,  ,", "location_accuracy": "Ohjeellinen (10 - 100 m)", "url": "www.kyppi.fi/to.aspx?id=112.1351", "is_ancient": "1", "source": "museovirasto" }, "geometry": { "type": "Point", "coordinates": [ 23.018643635678835, 59.807540024251388 ] } },
{ "type": "Feature", "properties": { "id": 1359, "town": "Porvoo", "name": "Gunvor", "created_at": "2001-11-07", "type": "alusten hylyt,  ,  ,", "location_accuracy": null, "url": "www.kyppi.fi/to.aspx?id=112.1359", "is_ancient": "False", "source": "museovirasto" }, "geometry": { "type": "Point", "coordinates": [ 25.65651738453418, 60.117750178487292 ] } },
{ "type": "Feature", "properties": { "id": 1374, "town": "Hanko", "name": "Tvärminneön", "created_at": "2001-11-09", "type": "alusten hylyt,  ,  ,", "location_accuracy": null, "url": "www.kyppi.fi/to.aspx?id=112.1374", "is_ancient": "False", "source": "museovirasto" }, "geometry": { "type": "Point", "coordinates": [ 23.239640888626848, 59.840396584684186 ] } },
{ "type": "Feature", "properties": { "id": 1375, "town": "Hanko", "name": "Kalvholm 1", "created_at": "2001-11-09", "type": "alusten hylyt,  ,  ,", "location_accuracy": "Ohjeellinen (10 - 100 m)", "url": "www.kyppi.fi/to.aspx?id=112.1375", "is_ancient": "1", "source": "museovirasto" }, "geometry": { "type": "Point", "coordinates": [ 23.250070667495649, 59.832760345080139 ] } },
{ "type": "Feature", "properties": { "id": 1387, "town": "Hanko", "name": "Kadermo", "created_at": "2001-11-12", "type": "alusten hylyt,  ,  ,", "location_accuracy": null, "url": "www.kyppi.fi/to.aspx?id=112.1387", "is_ancient": "False", "source": "museovirasto" }, "geometry": { "type": "Point", "coordinates": [ 23.058526652443788, 59.900026588288107 ] } },
{ "type": "Feature", "properties": { "id": 1332, "town": "Helsinki", "name": "Itä-Villinki eteläpuoli", "created_at": "2001-11-06", "type": "alusten hylyt,  ,  ,", "location_accuracy": null, "url": "www.kyppi.fi/to.aspx?id=112.1332", "is_ancient": "False", "source": "museovirasto" }, "geometry": { "type": "Point", "coordinates": [ 25.144907704880822, 60.155379568823903 ] } },
{ "type": "Feature", "properties": { "id": 1338, "town": "Hanko", "name": "Granbusken", "created_at": "2001-11-07", "type": "alusten hylyt,  ,  ,", "location_accuracy": "Ohjeellinen (10 - 100 m)", "url": "www.kyppi.fi/to.aspx?id=112.1338", "is_ancient": "1", "source": "museovirasto" }, "geometry": { "type": "Point", "coordinates": [ 23.247970607403676, 59.813687186780534 ] } },
{ "type": "Feature", "properties": { "id": 1000004793, "town": "Pihtipudas", "name": "Olloven kalapato", "created_at": "2005-11-30", "type": "työ- ja valmistuspaikat,  ,  ,", "location_accuracy": null, "url": "www.kyppi.fi/to.aspx?id=112.1000004793", "is_ancient": "False", "source": "museovirasto" }, "geometry": { "type": "Point", "coordinates": [ 25.329345327376199, 63.58198278922405 ] } },
{ "type": "Feature", "properties": { "id": 1000006408, "town": "Taivalkoski", "name": "Rääpysjärvi", "created_at": "2006-11-07", "type": "työ- ja valmistuspaikat,  ,  ,", "location_accuracy": null, "url": "www.kyppi.fi/to.aspx?id=112.1000006408", "is_ancient": "False", "source": "museovirasto" }, "geometry": { "type": "Point", "coordinates": [ 28.243312918005831, 65.689432282006109 ] } },
{ "type": "Feature", "properties": { "id": 1000003592, "town": "Saarijärvi", "name": "Ruokonen", "created_at": "2005-04-13", "type": "työ- ja valmistuspaikat,  ,  ,", "location_accuracy": null, "url": "www.kyppi.fi/to.aspx?id=112.1000003592", "is_ancient": "False", "source": "museovirasto" }, "geometry": { "type": "Point", "coordinates": [ 24.572100589627706, 62.723163432447606 ] } },
{ "type": "Feature", "properties": { "id": 1320, "town": "Helsinki", "name": "Iso Mustasaari 4", "created_at": "2001-11-06", "type": "alusten hylyt,  ,  ,", "location_accuracy": "Ohjeellinen (10 - 100 m)", "url": "www.kyppi.fi/to.aspx?id=112.1320", "is_ancient": "1", "source": "museovirasto" }, "geometry": { "type": "Point", "coordinates": [ 24.993529266262826, 60.145595031358589 ] } },
{ "type": "Feature", "properties": { "id": 1323, "town": "Helsinki", "name": "Kustaanmiekan hylky 1b", "created_at": "2001-11-06", "type": "alusten hylyt,  ,  ,", "location_accuracy": null, "url": "www.kyppi.fi/to.aspx?id=112.1323", "is_ancient": "False", "source": "museovirasto" }, "geometry": { "type": "Point", "coordinates": [ 24.987260984462736, 60.13767984661682 ] } },
{ "type": "Feature", "properties": { "id": 1341, "town": "Hanko", "name": "Antonia", "created_at": "2001-11-07", "type": "alusten hylyt,  ,  ,", "location_accuracy": "Tarkka (< 10 m)", "url": "www.kyppi.fi/to.aspx?id=112.1341", "is_ancient": "1", "source": "museovirasto" }, "geometry": { "type": "Point", "coordinates": [ 23.273299612668524, 59.903318508155408 ] } },
{ "type": "Feature", "properties": { "id": 1347, "town": "Hanko", "name": "Johanna", "created_at": "2001-11-07", "type": "alusten hylyt,  ,  ,", "location_accuracy": "Ohjeellinen (10 - 100 m)", "url": "www.kyppi.fi/to.aspx?id=112.1347", "is_ancient": "1", "source": "museovirasto" }, "geometry": { "type": "Point", "coordinates": [ 23.263345331978851, 59.837586131401224 ] } },
{ "type": "Feature", "properties": { "id": 1361, "town": "Helsinki", "name": "Kustaanmiekan hylky 3", "created_at": "2001-11-08", "type": "alusten hylyt,  ,  ,", "location_accuracy": null, "url": "www.kyppi.fi/to.aspx?id=112.1361", "is_ancient": "False", "source": "museovirasto" }, "geometry": { "type": "Point", "coordinates": [ 24.991102970401421, 60.138438488233867 ] } },
{ "type": "Feature", "properties": { "id": 1376, "town": "Hanko", "name": "Halsholmenin kolmijalkapata", "created_at": "2001-11-09", "type": "löytöpaikat,  ,  ,", "location_accuracy": null, "url": "www.kyppi.fi/to.aspx?id=112.1376", "is_ancient": "False", "source": "museovirasto" }, "geometry": { "type": "Point", "coordinates": [ 23.255646690259759, 59.843180614042829 ] } },
{ "type": "Feature", "properties": { "id": 1377, "town": "Hanko", "name": "Porsskär", "created_at": "2001-11-09", "type": "alusten hylyt,  ,  ,", "location_accuracy": "Ohjeellinen (10 - 100 m)", "url": "www.kyppi.fi/to.aspx?id=112.1377", "is_ancient": "1", "source": "museovirasto" }, "geometry": { "type": "Point", "coordinates": [ 23.145235074950417, 59.814083131275176 ] } },
{ "type": "Feature", "properties": { "id": 1399, "town": "Hanko", "name": "Meta", "created_at": "2001-11-12", "type": "alusten hylyt,  ,  ,", "location_accuracy": null, "url": "www.kyppi.fi/to.aspx?id=112.1399", "is_ancient": "False", "source": "museovirasto" }, "geometry": { "type": "Point", "coordinates": [ 22.924563759228175, 59.764580890969384 ] } },
{ "type": "Feature", "properties": { "id": 1434, "town": "Inkoo", "name": "Tostholm", "created_at": "2001-11-13", "type": "löytöpaikat,  ,  ,", "location_accuracy": null, "url": "www.kyppi.fi/to.aspx?id=112.1434", "is_ancient": "False", "source": "museovirasto" }, "geometry": { "type": "Point", "coordinates": [ 23.837453713197171, 59.944653911951626 ] } },
{ "type": "Feature", "properties": { "id": 1458, "town": "Raasepori", "name": "Gloskär 1", "created_at": "2001-11-15", "type": "alusten hylyt,  ,  ,", "location_accuracy": "Ohjeellinen (10 - 100 m)", "url": "www.kyppi.fi/to.aspx?id=112.1458", "is_ancient": "1", "source": "museovirasto" }, "geometry": { "type": "Point", "coordinates": [ 23.319327156860922, 59.86539267578874 ] } },
{ "type": "Feature", "properties": { "id": 1467, "town": "Raasepori", "name": "Segelskär 3", "created_at": "2001-11-15", "type": "alusten hylyt,  ,  ,", "location_accuracy": "Ohjeellinen (10 - 100 m)", "url": "www.kyppi.fi/to.aspx?id=112.1467", "is_ancient": "1", "source": "museovirasto" }, "geometry": { "type": "Point", "coordinates": [ 23.383210383548139, 59.755295187212241 ] } },
{ "type": "Feature", "properties": { "id": 1305, "town": "Helsinki", "name": "Puolimatkansaari", "created_at": "2001-11-05", "type": "alusten hylyt,  ,  ,", "location_accuracy": "Tarkka (< 10 m)", "url": "www.kyppi.fi/to.aspx?id=112.1305", "is_ancient": "1", "source": "museovirasto" }, "geometry": { "type": "Point", "coordinates": [ 24.973745374361414, 60.158393105625159 ] } },
{ "type": "Feature", "properties": { "id": 1316, "town": "Helsinki", "name": "Bändarn 2", "created_at": "2001-11-06", "type": "alusten hylyt,  ,  ,", "location_accuracy": null, "url": "www.kyppi.fi/to.aspx?id=112.1316", "is_ancient": "False", "source": "museovirasto" }, "geometry": { "type": "Point", "coordinates": [ 25.023543809467448, 60.079607831228145 ] } },
{ "type": "Feature", "properties": { "id": 1327, "town": "Helsinki", "name": "Pikku-Mustasaari 2", "created_at": "2001-11-06", "type": "alusten hylyt,  ,  ,", "location_accuracy": "Ohjeellinen (10 - 100 m)", "url": "www.kyppi.fi/to.aspx?id=112.1327", "is_ancient": "1", "source": "museovirasto" }, "geometry": { "type": "Point", "coordinates": [ 24.977786175702715, 60.150383354838624 ] } },
{ "type": "Feature", "properties": { "id": 1335, "town": "Helsinki", "name": "Trutholmen", "created_at": "2001-11-07", "type": "alusten hylyt,  ,  ,", "location_accuracy": null, "url": "www.kyppi.fi/to.aspx?id=112.1335", "is_ancient": "False", "source": "museovirasto" }, "geometry": { "type": "Point", "coordinates": [ 25.108745665024916, 60.145611846224917 ] } },
{ "type": "Feature", "properties": { "id": 1362, "town": "Helsinki", "name": "Iso Mustasaari 1A", "created_at": "2001-11-08", "type": "alusten hylyt,  ,  ,", "location_accuracy": "Ohjeellinen (10 - 100 m)", "url": "www.kyppi.fi/to.aspx?id=112.1362", "is_ancient": "1", "source": "museovirasto" }, "geometry": { "type": "Point", "coordinates": [ 24.992510155083096, 60.147249563176047 ] } },
{ "type": "Feature", "properties": { "id": 1365, "town": "Helsinki", "name": "Iso Mustasaari 3", "created_at": "2001-11-08", "type": "alusten hylyt,  ,  ,", "location_accuracy": "Ohjeellinen (10 - 100 m)", "url": "www.kyppi.fi/to.aspx?id=112.1365", "is_ancient": "1", "source": "museovirasto" }, "geometry": { "type": "Point", "coordinates": [ 24.992079315455754, 60.147817591325577 ] } },
{ "type": "Feature", "properties": { "id": 1366, "town": "Helsinki", "name": "Iso Mustasaari 17", "created_at": "2001-11-08", "type": "alusten hylyt,  ,  ,", "location_accuracy": null, "url": "www.kyppi.fi/to.aspx?id=112.1366", "is_ancient": "False", "source": "museovirasto" }, "geometry": { "type": "Point", "coordinates": [ 24.992019879881962, 60.148202747730046 ] } },
{ "type": "Feature", "properties": { "id": 1369, "town": "Helsinki", "name": "Susisaaren tykki", "created_at": "2001-11-09", "type": "löytöpaikat,  ,  ,", "location_accuracy": null, "url": "www.kyppi.fi/to.aspx?id=112.1369", "is_ancient": "False", "source": "museovirasto" }, "geometry": { "type": "Point", "coordinates": [ 24.981468807171233, 60.141721625492309 ] } },
{ "type": "Feature", "properties": { "id": 1395, "town": "Hanko", "name": "Tulliniemen kaksoishylky 1", "created_at": "2001-11-12", "type": "alusten hylyt,  ,  ,", "location_accuracy": "Ohjeellinen (10 - 100 m)", "url": "www.kyppi.fi/to.aspx?id=112.1395", "is_ancient": "1", "source": "museovirasto" }, "geometry": { "type": "Point", "coordinates": [ 22.916770647381174, 59.808340128253164 ] } },
{ "type": "Feature", "properties": { "id": 1402, "town": "Hanko", "name": "Fröjan", "created_at": "2001-11-12", "type": "alusten hylyt,  ,  ,", "location_accuracy": "Ohjeellinen (10 - 100 m)", "url": "www.kyppi.fi/to.aspx?id=112.1402", "is_ancient": "1", "source": "museovirasto" }, "geometry": { "type": "Point", "coordinates": [ 22.811357279663685, 59.828559788560327 ] } },
{ "type": "Feature", "properties": { "id": 1405, "town": "Hanko", "name": "Länsisatama länsipuoli", "created_at": "2001-11-12", "type": "alusten hylyt,  ,  ,", "location_accuracy": null, "url": "www.kyppi.fi/to.aspx?id=112.1405", "is_ancient": "False", "source": "museovirasto" }, "geometry": { "type": "Point", "coordinates": [ 22.943321584760337, 59.820324667285156 ] } },
{ "type": "Feature", "properties": { "id": 1416, "town": "Hanko", "name": "Smörstenin hylky", "created_at": "2001-11-13", "type": "alusten hylyt,  ,  ,", "location_accuracy": null, "url": "www.kyppi.fi/to.aspx?id=112.1416", "is_ancient": "False", "source": "museovirasto" }, "geometry": { "type": "Point", "coordinates": [ 22.849603709163105, 59.826214318788381 ] } },
{ "type": "Feature", "properties": { "id": 1447, "town": "Raasepori", "name": "Rysskär", "created_at": "2001-11-14", "type": "alusten hylyt,  ,  ,", "location_accuracy": "Ohjeellinen (10 - 100 m)", "url": "www.kyppi.fi/to.aspx?id=112.1447", "is_ancient": "1", "source": "museovirasto" }, "geometry": { "type": "Point", "coordinates": [ 23.546036676426745, 59.845162974483401 ] } },
{ "type": "Feature", "properties": { "id": 1451, "town": "Raasepori", "name": "Långösund 1", "created_at": "2001-11-14", "type": "alusten hylyt,  ,  ,", "location_accuracy": "Ohjeellinen (10 - 100 m)", "url": "www.kyppi.fi/to.aspx?id=112.1451", "is_ancient": "1", "source": "museovirasto" }, "geometry": { "type": "Point", "coordinates": [ 23.724706435087839, 59.948978787214969 ] } },
{ "type": "Feature", "properties": { "id": 1480, "town": "Raasepori", "name": "Segelskär 7", "created_at": "2001-11-15", "type": "löytöpaikat,  ,  ,", "location_accuracy": null, "url": "www.kyppi.fi/to.aspx?id=112.1480", "is_ancient": "False", "source": "museovirasto" }, "geometry": { "type": "Point", "coordinates": [ 23.373764056333027, 59.765237875180375 ] } },
{ "type": "Feature", "properties": { "id": 1500, "town": "Kemiönsaari", "name": "Tolvsnäs", "created_at": "2001-11-16", "type": "alusten hylyt,  ,  ,", "location_accuracy": "Ohjeellinen (10 - 100 m)", "url": "www.kyppi.fi/to.aspx?id=112.1500", "is_ancient": "1", "source": "museovirasto" }, "geometry": { "type": "Point", "coordinates": [ 22.41471943863467, 60.182072344480495 ] } },
{ "type": "Feature", "properties": { "id": 1505, "town": "Salo", "name": "Finby Båseudd", "created_at": "2001-11-19", "type": "alusten hylyt,  ,  ,", "location_accuracy": "Ohjeellinen (10 - 100 m)", "url": "www.kyppi.fi/to.aspx?id=112.1505", "is_ancient": "1", "source": "museovirasto" }, "geometry": { "type": "Point", "coordinates": [ 22.968566343952791, 60.103027321272066 ] } },
{ "type": "Feature", "properties": { "id": 1511, "town": "Kemiönsaari", "name": "Garpen 1", "created_at": "2001-11-19", "type": "alusten hylyt,  ,  ,", "location_accuracy": "Ohjeellinen (10 - 100 m)", "url": "www.kyppi.fi/to.aspx?id=112.1511", "is_ancient": "1", "source": "museovirasto" }, "geometry": { "type": "Point", "coordinates": [ 22.750640308419939, 59.836614497051094 ] } },
{ "type": "Feature", "properties": { "id": 1512, "town": "Kemiönsaari", "name": "Metskär", "created_at": "2001-11-19", "type": "alusten hylyt,  ,  ,", "location_accuracy": "Tarkka (< 10 m)", "url": "www.kyppi.fi/to.aspx?id=112.1512", "is_ancient": "1", "source": "museovirasto" }, "geometry": { "type": "Point", "coordinates": [ 22.306759550975638, 59.863735322109406 ] } },
{ "type": "Feature", "properties": { "id": 1513, "town": "Kemiönsaari", "name": "Keulakuvahylky", "created_at": "2001-11-19", "type": "alusten hylyt,  ,  ,", "location_accuracy": "Ohjeellinen (10 - 100 m)", "url": "www.kyppi.fi/to.aspx?id=112.1513", "is_ancient": "1", "source": "museovirasto" }, "geometry": { "type": "Point", "coordinates": [ 22.768947327827629, 59.861229591443724 ] } },
{ "type": "Feature", "properties": { "id": 1339, "town": "Hanko", "name": "Ellen", "created_at": "2001-11-07", "type": "alusten hylyt,  ,  ,", "location_accuracy": null, "url": "www.kyppi.fi/to.aspx?id=112.1339", "is_ancient": "False", "source": "museovirasto" }, "geometry": { "type": "Point", "coordinates": [ 23.192532764570416, 59.815165578300444 ] } },
{ "type": "Feature", "properties": { "id": 1364, "town": "Helsinki", "name": "Iso Mustasaari 6", "created_at": "2001-11-08", "type": "alusten hylyt,  ,  ,", "location_accuracy": "Ohjeellinen (10 - 100 m)", "url": "www.kyppi.fi/to.aspx?id=112.1364", "is_ancient": "1", "source": "museovirasto" }, "geometry": { "type": "Point", "coordinates": [ 24.992462590577073, 60.147733592151091 ] } },
{ "type": "Feature", "properties": { "id": 1372, "town": "Helsinki", "name": "Iso Mustasaari 15", "created_at": "2001-11-09", "type": "alusten hylyt,  ,  ,", "location_accuracy": null, "url": "www.kyppi.fi/to.aspx?id=112.1372", "is_ancient": "False", "source": "museovirasto" }, "geometry": { "type": "Point", "coordinates": [ 24.98936127217938, 60.143673337690082 ] } },
{ "type": "Feature", "properties": { "id": 1380, "town": "Hanko", "name": "Halsholmen eteläpuoli", "created_at": "2001-11-09", "type": "alusten hylyt,  ,  ,", "location_accuracy": "Ohjeellinen (10 - 100 m)", "url": "www.kyppi.fi/to.aspx?id=112.1380", "is_ancient": "1", "source": "museovirasto" }, "geometry": { "type": "Point", "coordinates": [ 23.143511734367486, 59.895867598970014 ] } },
{ "type": "Feature", "properties": { "id": 1382, "town": "Hanko", "name": "Furuholmen", "created_at": "2001-11-09", "type": "alusten hylyt,  ,  ,", "location_accuracy": null, "url": "www.kyppi.fi/to.aspx?id=112.1382", "is_ancient": "False", "source": "museovirasto" }, "geometry": { "type": "Point", "coordinates": [ 23.078534288062755, 59.966897852277263 ] } },
{ "type": "Feature", "properties": { "id": 1384, "town": "Hanko", "name": "Bengtsår-Präston", "created_at": "2001-11-09", "type": "alusten hylyt,  ,  ,", "location_accuracy": "Suuntaa antava (100 - 1000 m)", "url": "www.kyppi.fi/to.aspx?id=112.1384", "is_ancient": "1", "source": "museovirasto" }, "geometry": { "type": "Point", "coordinates": [ 23.10094115572479, 59.922712952035141 ] } },
{ "type": "Feature", "properties": { "id": 1517, "town": "Kemiönsaari", "name": "Måsklobben", "created_at": "2001-11-19", "type": "alusten hylyt,  ,  ,", "location_accuracy": "Ohjeellinen (10 - 100 m)", "url": "www.kyppi.fi/to.aspx?id=112.1517", "is_ancient": "1", "source": "museovirasto" }, "geometry": { "type": "Point", "coordinates": [ 22.447566444062126, 59.795913738600397 ] } },
{ "type": "Feature", "properties": { "id": 1553, "town": "Kemiönsaari", "name": "Kalkskärin hylky", "created_at": "2001-11-20", "type": "alusten hylyt,  ,  ,", "location_accuracy": null, "url": "www.kyppi.fi/to.aspx?id=112.1553", "is_ancient": "False", "source": "museovirasto" }, "geometry": { "type": "Point", "coordinates": [ 22.076932332504668, 59.775671516773144 ] } },
{ "type": "Feature", "properties": { "id": 1000006203, "town": "Suonenjoki", "name": "Pieni Uuhijärvi", "created_at": "2006-10-23", "type": "työ- ja valmistuspaikat,  ,  ,", "location_accuracy": null, "url": "www.kyppi.fi/to.aspx?id=112.1000006203", "is_ancient": "False", "source": "museovirasto" }, "geometry": { "type": "Point", "coordinates": [ 27.203601712295001, 62.482375092968944 ] } },
{ "type": "Feature", "properties": { "id": 1407, "town": "Hanko", "name": "Asa Finn", "created_at": "2001-11-12", "type": "alusten hylyt,  ,  ,", "location_accuracy": null, "url": "www.kyppi.fi/to.aspx?id=112.1407", "is_ancient": "False", "source": "museovirasto" }, "geometry": { "type": "Point", "coordinates": [ 22.875561950896216, 59.828928024645101 ] } },
{ "type": "Feature", "properties": { "id": 1411, "town": "Hanko", "name": "Låglandet länsiranta", "created_at": "2001-11-13", "type": "alusten hylyt,  ,  ,", "location_accuracy": "Ohjeellinen (10 - 100 m)", "url": "www.kyppi.fi/to.aspx?id=112.1411", "is_ancient": "1", "source": "museovirasto" }, "geometry": { "type": "Point", "coordinates": [ 22.927995647638056, 59.798820676458206 ] } },
{ "type": "Feature", "properties": { "id": 1421, "town": "Inkoo", "name": "Vormö Notudden", "created_at": "2001-11-13", "type": "alusten hylyt,  ,  ,", "location_accuracy": null, "url": "www.kyppi.fi/to.aspx?id=112.1421", "is_ancient": "False", "source": "museovirasto" }, "geometry": { "type": "Point", "coordinates": [ 24.225351245477444, 60.017979907033755 ] } },
{ "type": "Feature", "properties": { "id": 1450, "town": "Raasepori", "name": "Norruddin hylky", "created_at": "2001-11-14", "type": "alusten hylyt,  ,  ,", "location_accuracy": "Ohjeellinen (10 - 100 m)", "url": "www.kyppi.fi/to.aspx?id=112.1450", "is_ancient": "1", "source": "museovirasto" }, "geometry": { "type": "Point", "coordinates": [ 23.719048402045882, 59.954218896281667 ] } },
{ "type": "Feature", "properties": { "id": 1454, "town": "Raasepori", "name": "Långösund 4", "created_at": "2001-11-14", "type": "alusten hylyt,  ,  ,", "location_accuracy": "Ohjeellinen (10 - 100 m)", "url": "www.kyppi.fi/to.aspx?id=112.1454", "is_ancient": "1", "source": "museovirasto" }, "geometry": { "type": "Point", "coordinates": [ 23.726150845953033, 59.949948948059038 ] } },
{ "type": "Feature", "properties": { "id": 1476, "town": "Raasepori", "name": "Segelskär 1", "created_at": "2001-11-15", "type": "alusten hylyt,  ,  ,", "location_accuracy": "Ohjeellinen (10 - 100 m)", "url": "www.kyppi.fi/to.aspx?id=112.1476", "is_ancient": "1", "source": "museovirasto" }, "geometry": { "type": "Point", "coordinates": [ 23.372201708423521, 59.764394248448383 ] } },
{ "type": "Feature", "properties": { "id": 1427, "town": "Inkoo", "name": "Oxgrundet", "created_at": "2001-11-13", "type": "alusten hylyt,  ,  ,", "location_accuracy": "Ohjeellinen (10 - 100 m)", "url": "www.kyppi.fi/to.aspx?id=112.1427", "is_ancient": "1", "source": "museovirasto" }, "geometry": { "type": "Point", "coordinates": [ 24.097895250447312, 59.985627820392779 ] } },
{ "type": "Feature", "properties": { "id": 1477, "town": "Raasepori", "name": "Segelskär 2", "created_at": "2001-11-15", "type": "alusten hylyt,  ,  ,", "location_accuracy": null, "url": "www.kyppi.fi/to.aspx?id=112.1477", "is_ancient": "False", "source": "museovirasto" }, "geometry": { "type": "Point", "coordinates": [ 23.372010834873031, 59.762991581124936 ] } },
{ "type": "Feature", "properties": { "id": 1481, "town": "Raasepori", "name": "Tallholmen", "created_at": "2001-11-15", "type": "alusten hylyt,  ,  ,", "location_accuracy": null, "url": "www.kyppi.fi/to.aspx?id=112.1481", "is_ancient": "False", "source": "museovirasto" }, "geometry": { "type": "Point", "coordinates": [ 22.857644375801353, 59.887708964570152 ] } },
{ "type": "Feature", "properties": { "id": 1490, "town": "Raasepori", "name": "Höstnäs", "created_at": "2001-11-16", "type": "alusten hylyt,  ,  ,", "location_accuracy": "Ohjeellinen (10 - 100 m)", "url": "www.kyppi.fi/to.aspx?id=112.1490", "is_ancient": "1", "source": "museovirasto" }, "geometry": { "type": "Point", "coordinates": [ 23.749650242370667, 59.974577839470747 ] } },
{ "type": "Feature", "properties": { "id": 1498, "town": "Kemiönsaari", "name": "Altai", "created_at": "2001-11-16", "type": "alusten hylyt,  ,  ,", "location_accuracy": null, "url": "www.kyppi.fi/to.aspx?id=112.1498", "is_ancient": "False", "source": "museovirasto" }, "geometry": { "type": "Point", "coordinates": [ 22.459762735216877, 60.206783338949244 ] } },
{ "type": "Feature", "properties": { "id": 1501, "town": "Kemiönsaari", "name": "Santasaari itäranta", "created_at": "2001-11-16", "type": "alusten hylyt,  ,  ,", "location_accuracy": "Ohjeellinen (10 - 100 m)", "url": "www.kyppi.fi/to.aspx?id=112.1501", "is_ancient": "1", "source": "museovirasto" }, "geometry": { "type": "Point", "coordinates": [ 22.506053622632631, 60.229730703450322 ] } },
{ "type": "Feature", "properties": { "id": 1507, "town": "Salo", "name": "Förby", "created_at": "2001-11-19", "type": "alusten hylyt,  ,  ,", "location_accuracy": null, "url": "www.kyppi.fi/to.aspx?id=112.1507", "is_ancient": "False", "source": "museovirasto" }, "geometry": { "type": "Point", "coordinates": [ 22.863424014979731, 60.080122275713343 ] } },
{ "type": "Feature", "properties": { "id": 1452, "town": "Raasepori", "name": "Långösund 2", "created_at": "2001-11-14", "type": "alusten hylyt,  ,  ,", "location_accuracy": "Ohjeellinen (10 - 100 m)", "url": "www.kyppi.fi/to.aspx?id=112.1452", "is_ancient": "1", "source": "museovirasto" }, "geometry": { "type": "Point", "coordinates": [ 23.727555092732011, 59.949148382183431 ] } },
{ "type": "Feature", "properties": { "id": 1456, "town": "Raasepori", "name": "Österbådan", "created_at": "2001-11-14", "type": "alusten hylyt,  ,  ,", "location_accuracy": null, "url": "www.kyppi.fi/to.aspx?id=112.1456", "is_ancient": "False", "source": "museovirasto" }, "geometry": { "type": "Point", "coordinates": [ 23.794067055817241, 59.847741336256021 ] } },
{ "type": "Feature", "properties": { "id": 1465, "town": "Raasepori", "name": "Äggharun 1", "created_at": "2001-11-15", "type": "alusten hylyt,  ,  ,", "location_accuracy": "Ohjeellinen (10 - 100 m)", "url": "www.kyppi.fi/to.aspx?id=112.1465", "is_ancient": "1", "source": "museovirasto" }, "geometry": { "type": "Point", "coordinates": [ 23.349063284816364, 59.819418890054422 ] } },
{ "type": "Feature", "properties": { "id": 1470, "town": "Raasepori", "name": "Eggo", "created_at": "2001-11-15", "type": "alusten hylyt,  ,  ,", "location_accuracy": "Ohjeellinen (10 - 100 m)", "url": "www.kyppi.fi/to.aspx?id=112.1470", "is_ancient": "1", "source": "museovirasto" }, "geometry": { "type": "Point", "coordinates": [ 23.299812224450932, 59.848240609609952 ] } },
{ "type": "Feature", "properties": { "id": 1482, "town": "Raasepori", "name": "Porsön hylky", "created_at": "2001-11-16", "type": "alusten hylyt,  ,  ,", "location_accuracy": "Tarkka (< 10 m)", "url": "www.kyppi.fi/to.aspx?id=112.1482", "is_ancient": "1", "source": "museovirasto" }, "geometry": { "type": "Point", "coordinates": [ 22.897614831513117, 59.891920764952417 ] } },
{ "type": "Feature", "properties": { "id": 1483, "town": "Raasepori", "name": "Djupviken", "created_at": "2001-11-16", "type": "alusten hylyt,  ,  ,", "location_accuracy": "Ohjeellinen (10 - 100 m)", "url": "www.kyppi.fi/to.aspx?id=112.1483", "is_ancient": "1", "source": "museovirasto" }, "geometry": { "type": "Point", "coordinates": [ 22.99019303516307, 60.085056040941673 ] } },
{ "type": "Feature", "properties": { "id": 1488, "town": "Raasepori", "name": "Södra viken 2", "created_at": "2001-11-16", "type": "alusten hylyt,  ,  ,", "location_accuracy": null, "url": "www.kyppi.fi/to.aspx?id=112.1488", "is_ancient": "False", "source": "museovirasto" }, "geometry": { "type": "Point", "coordinates": [ 23.431846670231447, 59.97097821006659 ] } },
{ "type": "Feature", "properties": { "id": 1502, "town": "Kemiönsaari", "name": "Orrnäs", "created_at": "2001-11-16", "type": "alusten hylyt,  ,  ,", "location_accuracy": "> 1000m", "url": "www.kyppi.fi/to.aspx?id=112.1502", "is_ancient": "1", "source": "museovirasto" }, "geometry": { "type": "Point", "coordinates": [ 22.851343939054143, 60.215335558536516 ] } },
{ "type": "Feature", "properties": { "id": 1508, "town": "Salo", "name": "Ryssviken", "created_at": "2001-11-19", "type": "löytöpaikat,  ,  ,", "location_accuracy": null, "url": "www.kyppi.fi/to.aspx?id=112.1508", "is_ancient": "False", "source": "museovirasto" }, "geometry": { "type": "Point", "coordinates": [ 22.876588415689422, 60.157060205147062 ] } },
{ "type": "Feature", "properties": { "id": 1515, "town": "Kemiönsaari", "name": "Schiller", "created_at": "2001-11-19", "type": "alusten hylyt,  ,  ,", "location_accuracy": "Ohjeellinen (10 - 100 m)", "url": "www.kyppi.fi/to.aspx?id=112.1515", "is_ancient": "1", "source": "museovirasto" }, "geometry": { "type": "Point", "coordinates": [ 22.364186881984839, 59.789084563725254 ] } },
{ "type": "Feature", "properties": { "id": 1521, "town": "Kemiönsaari", "name": "Väktars strömmen", "created_at": "2001-11-19", "type": "alusten hylyt,  ,  ,", "location_accuracy": "Ohjeellinen (10 - 100 m)", "url": "www.kyppi.fi/to.aspx?id=112.1521", "is_ancient": "1", "source": "museovirasto" }, "geometry": { "type": "Point", "coordinates": [ 22.46123519494051, 59.855747227458657 ] } },
{ "type": "Feature", "properties": { "id": 1522, "town": "Kemiönsaari", "name": "Enskäret", "created_at": "2001-11-19", "type": "alusten hylyt,  ,  ,", "location_accuracy": "Ohjeellinen (10 - 100 m)", "url": "www.kyppi.fi/to.aspx?id=112.1522", "is_ancient": "1", "source": "museovirasto" }, "geometry": { "type": "Point", "coordinates": [ 22.456399038015647, 59.834633638559104 ] } },
{ "type": "Feature", "properties": { "id": 1534, "town": "Kemiönsaari", "name": "Purunpää itäpuoli 1", "created_at": "2001-11-20", "type": "löytöpaikat,  ,  ,", "location_accuracy": null, "url": "www.kyppi.fi/to.aspx?id=112.1534", "is_ancient": "False", "source": "museovirasto" }, "geometry": { "type": "Point", "coordinates": [ 22.397758638115654, 60.002957195467381 ] } },
{ "type": "Feature", "properties": { "id": 1542, "town": "Kemiönsaari", "name": "Rävskäret b", "created_at": "2001-11-20", "type": "alusten hylyt,  ,  ,", "location_accuracy": "Suuntaa antava (100 - 1000 m)", "url": "www.kyppi.fi/to.aspx?id=112.1542", "is_ancient": "1", "source": "museovirasto" }, "geometry": { "type": "Point", "coordinates": [ 22.743235088564997, 59.935172010489147 ] } },